[{"name": "Gosberton Medical Centre", "coordinates": [-0.1592579334974288, 52.86989212036133]}, {"name": "Stanley Medical Group", "coordinates": [-1.6980383396148682, 54.87003326416016]}, {"name": "Appleby Medical Practice", "coordinates": [-2.4929776191711426, 54.578086853027344]}, {"name": "Calow & Brimington Practice", "coordinates": [-1.3961063623428345, 53.257850646972656]}, {"name": "Villette Surgery", "coordinates": [-1.3684068918228147, 54.89746856689453]}, {"name": "Minet Green Health Practice", "coordinates": [-0.1051896214485168, 51.47571563720703]}, {"name": "Knights Hill Surgery", "coordinates": [-0.1049848571419715, 51.427825927734375]}, {"name": "Stamford House", "coordinates": [-2.078626871109009, 53.493648529052734]}, {"name": "The Castle Practice", "coordinates": [-1.7576427459716797, 52.50127410888672]}, {"name": "Brampton Medical Practice", "coordinates": [-2.73482608795166, 54.94236755371094]}, {"name": "Staunton Surgery", "coordinates": [-0.9780053496360778, 50.85106658935546]}, {"name": "Kidderminster Medical Centre", "coordinates": [-2.2464745044708248, 52.38904571533203]}, {"name": "Marden Medical Centre", "coordinates": [0.4922841489315033, 51.17414855957031]}, {"name": "Elsenham Surgery", "coordinates": [0.2283763289451599, 51.915565490722656]}, {"name": "Okehampton Medical Centre", "coordinates": [-3.997580051422119, 50.738800048828125]}, {"name": "Ledbury Health Partnership", "coordinates": [-2.425644397735596, 52.03630828857422]}, {"name": "306 Medical Centre", "coordinates": [-0.07638830691576, 51.45074081420898]}, {"name": "Dolphin House Surgery", "coordinates": [-0.029876356944441795, 51.810791015625]}, {"name": "Tower Family Healthcare Tottington", "coordinates": [-2.341432571411133, 53.6147575378418]}, {"name": "Claremont Medical Centre", "coordinates": [-0.033798739314079285, 51.594356536865234]}, {"name": "The Surgery", "coordinates": [1.3398712873458862, 51.2760124206543]}, {"name": "Pinehill Surgery", "coordinates": [-0.858868420124054, 51.1082420349121]}, {"name": "PENDLETON MEDICAL CENTRE", "coordinates": [-2.2847282886505127, 53.48834991455078]}, {"name": "Stonecot Surgery", "coordinates": [-0.2100260108709335, 51.38655471801758]}, {"name": "ColdharbourHill PMS", "coordinates": [0.05912747234106064, 51.43207931518555]}, {"name": "STEWART MEDICAL CENTRE", "coordinates": [-1.918018221855164, 53.25400161743164]}, {"name": "Whitnash Medical Centre", "coordinates": [-1.5259054899215698, 52.26242446899414]}, {"name": "Werrington Village Surgery", "coordinates": [-2.0980081558227535, 53.02166366577149]}, {"name": "West Hallam Medical Centre", "coordinates": [-1.3591517210006714, 52.96660614013672]}, {"name": "Rainbow Medical Centre", "coordinates": [-2.7059168815612797, 53.435394287109375]}, {"name": "The Bedford Park Surgery ", "coordinates": [-0.2622879147529602, 51.49597930908203]}, {"name": "Sheppey NHS Healthcare Centre", "coordinates": [0.7930755615234375, 51.415409088134766]}, {"name": "Streamside Surgery", "coordinates": [-2.517708778381348, 51.61286544799805]}, {"name": "Clerkenwell Medical Practice", "coordinates": [-0.1088297963142395, 51.524864196777344]}, {"name": "Bury Road Surgery", "coordinates": [-1.1480667591094973, 50.79306411743164]}, {"name": "ST JAMES HEALTH CENTRE", "coordinates": [-2.979069948196411, 53.39833831787109]}, {"name": "Captain French Surgery", "coordinates": [-2.748547315597534, 54.32343292236328]}, {"name": "The Cottons Medical Centre", "coordinates": [-0.5477688908576965, 52.34564971923828]}, {"name": "Dr Kudra ", "coordinates": [-0.366658866405487, 51.44444274902344]}, {"name": "Barwell & Hollycroft Medical Centre", "coordinates": [-1.3489930629730225, 52.567264556884766]}, {"name": "Church Road Surgery", "coordinates": [-1.7807457447052002, 52.45886993408203]}, {"name": "Clifton House Medical Centre", "coordinates": [-0.3496885597705841, 53.75949478149414]}, {"name": "The Parkstone Tower Practice", "coordinates": [-1.9424817562103271, 50.72848892211913]}, {"name": "Newton Cottage Practice ", "coordinates": [-2.6352527141571045, 53.44598388671875]}, {"name": "DONNINGTON MEDICAL PRACTICE", "coordinates": [-2.437095880508423, 52.71516799926758]}, {"name": "Saltdean & Rottingdean Medical Practice", "coordinates": [-0.0357856638729572, 50.80229949951172]}, {"name": "Ripple Road Medical Centre", "coordinates": [0.09431438893079756, 51.535423278808594]}, {"name": "Grovelands & Grenoble Medical Centre ", "coordinates": [-0.1120138391852378, 51.62068557739258]}, {"name": "Mawbey Group Practice", "coordinates": [-0.1252180486917495, 51.47928237915039]}, {"name": "North Avenue Surgery", "coordinates": [0.7352010607719421, 51.54661560058594]}, {"name": "SAVITA MEDICAL CENTRE", "coordinates": [-0.3428172171115875, 51.5865478515625]}, {"name": "Kingswood Surgery", "coordinates": [-1.7543268203735352, 51.55625915527344]}, {"name": "Dr Hogg &Partners", "coordinates": [-0.5960397720336914, 52.283485412597656]}, {"name": "Trinity Medical Centre", "coordinates": [-1.4367693662643433, 54.98769760131836]}, {"name": "Wymondham Medical Partnership", "coordinates": [1.121679186820984, 52.572174072265625]}, {"name": "The Willow Practice", "coordinates": [-0.3596000075340271, 51.461124420166016]}, {"name": "Church Farm Close Medical Practice", "coordinates": [-1.4953668117523191, 53.729446411132805]}, {"name": "Dr G.P Nelli & Partners", "coordinates": [-0.7528998255729675, 51.41722106933594]}, {"name": "Marple Cottage Surgery", "coordinates": [-2.0610270500183105, 53.39272689819336]}, {"name": "PENNY LANE SURGERY", "coordinates": [-2.914989471435547, 53.389408111572266]}, {"name": "London Street Surgery ", "coordinates": [-0.9678707718849182, 51.451370239257805]}, {"name": "Parliament Street Medical Centre", "coordinates": [-1.1526339054107666, 52.95462417602539]}, {"name": "Gresleydale Healthcare Centre", "coordinates": [-1.5768263339996338, 52.76076126098633]}, {"name": "Watling Medical Practice", "coordinates": [-2.514067888259888, 53.26023864746094]}, {"name": "Bridge Lane Group Practice", "coordinates": [-0.1674039959907531, 51.47414016723633]}, {"name": "Knowle Green Medical", "coordinates": [-0.5011043548583984, 51.42902755737305]}, {"name": "Denmark Road Medical Centre", "coordinates": [-1.876097083091736, 50.74704360961913]}, {"name": "Edith Cavell Surgery", "coordinates": [-0.124602697789669, 51.44126129150391]}, {"name": "Melbourne & Chellaston Medical Practice", "coordinates": [-1.4495066404342651, 52.86743927001953]}, {"name": "Southernhay House Surgery", "coordinates": [-3.5235595703125, 50.72262191772461]}, {"name": "Northbourne Medical Centre", "coordinates": [-0.2602300345897674, 50.8409538269043]}, {"name": "Iridium Medical Practice", "coordinates": [-1.8175034523010252, 52.47802734375]}, {"name": "Wragby Surgery", "coordinates": [-0.3013225793838501, 53.28794097900391]}, {"name": "King Edward Street Practice", "coordinates": [-1.2543623447418213, 51.75176239013672]}, {"name": "South Lawn Medical Practice", "coordinates": [-3.505528926849365, 50.72320938110352]}, {"name": "Lavant Road Surgery", "coordinates": [-0.7810370922088623, 50.85338592529297]}, {"name": "Whitehall Medical Practice", "coordinates": [-2.7380261421203613, 52.70595550537109]}, {"name": "The Moat House Surgery", "coordinates": [-0.1463721543550491, 51.25981903076172]}, {"name": "Silloth Group Medical Practice", "coordinates": [-3.3935558795928955, 54.86970901489258]}, {"name": "Grosvenor House Surgery", "coordinates": [-0.2125457376241684, 51.49663543701172]}, {"name": "The Alexandra Practice", "coordinates": [-2.2557306289672847, 53.44313049316406]}, {"name": "Eastgate Medical Group", "coordinates": [-1.46280038356781, 54.006797790527344]}, {"name": "Wordsworth Health Centre", "coordinates": [0.048996325582265854, 51.54157638549805]}, {"name": "Wandsworth Medical Centre", "coordinates": [-0.1921726614236831, 51.45370864868164]}, {"name": "Cranleigh Gardens Medical Centre", "coordinates": [-2.9958996772766118, 51.127479553222656]}, {"name": "Rotherfield Surgery", "coordinates": [0.2186662256717681, 51.04565048217773]}, {"name": "Bredbury Medical Centre", "coordinates": [-2.1140389442443848, 53.42291641235352]}, {"name": "Boundaries Surgery", "coordinates": [-1.0424383878707886, 51.11310958862305]}, {"name": "Oxted Health Centre", "coordinates": [-0.004204828757792711, 51.2552146911621]}, {"name": "John Smith Medical Centre/ChilversMcCrea Healthcare", "coordinates": [0.1109342649579048, 51.538101196289055]}, {"name": "Whitchurch Surgery", "coordinates": [-1.340358018875122, 51.23025894165039]}, {"name": "The Oaks Family Practice ", "coordinates": [-2.415210962295532, 53.59748840332031]}, {"name": "Balmoral Surgery", "coordinates": [1.399288535118103, 51.21329498291016]}, {"name": "The Blackdown Practice", "coordinates": [-3.2291116714477535, 50.913116455078125]}, {"name": "City View Medical Practice", "coordinates": [-1.5558598041534424, 53.7783088684082]}, {"name": "Smethwick Medical Centre", "coordinates": [-1.9681122303009035, 52.4948844909668]}, {"name": "Bankhouse Surgery", "coordinates": [-1.2141339778900146, 54.68233489990234]}, {"name": "Camberwell Green Practice", "coordinates": [-0.09345600008964537, 51.47461700439453]}, {"name": "Museum Practice", "coordinates": [-0.1258118748664856, 51.518184661865234]}, {"name": "Stony Medical Centre", "coordinates": [-0.8531795740127563, 52.05626678466797]}, {"name": "Dr Sharma's Practice", "coordinates": [-2.0771048069000244, 52.56890487670898]}, {"name": "The Medical Centre", "coordinates": [-0.1098055988550186, 51.551074981689446]}, {"name": "Nettleham Medical Practice", "coordinates": [-0.4762384593486785, 53.26286697387695]}, {"name": "Parkview Surgery", "coordinates": [-0.007718398235738277, 51.444862365722656]}, {"name": "Woodlands Health Centre", "coordinates": [0.3848643898963928, 51.18077087402344]}, {"name": "Ireland Wood & Horsforth Medical Practice", "coordinates": [-1.6039732694625854, 53.846633911132805]}, {"name": "Larkside Practice", "coordinates": [-0.3692407011985778, 51.89249038696289]}, {"name": "Kilmeny Group Medical Practice", "coordinates": [-1.921046495437622, 53.85572052001953]}, {"name": "Tower House Surgery", "coordinates": [-1.1514859199523926, 50.72719955444336]}, {"name": "Pike View Medical Centre", "coordinates": [-2.5508382320404053, 53.602153778076165]}, {"name": "Wellington Medical Practice", "coordinates": [-2.5141892433166504, 52.69988250732422]}, {"name": "The Avenue Surgery", "coordinates": [-2.1785218715667725, 51.20632553100586]}, {"name": "Dryland Surgery", "coordinates": [-0.7293648719787597, 52.40252304077149]}, {"name": "The Whitswood Practice", "coordinates": [-2.2534875869750977, 53.45577239990234]}, {"name": "Newport health Centre", "coordinates": [-1.3120779991149902, 50.69161224365234]}, {"name": "Mungo Park Surgery", "coordinates": [0.1911567449569702, 51.531227111816406]}, {"name": "Stoke Gifford and Conygre Medical Centres", "coordinates": [-2.546476125717163, 51.51773071289063]}, {"name": "Hoylake & Meols Medical Ctr", "coordinates": [-3.1555743217468266, 53.39985275268555]}, {"name": "Whitestone Surgery", "coordinates": [-1.4356485605239868, 52.499908447265625]}, {"name": "Chalgrove & Watlington Surgeries", "coordinates": [-0.9946181774139404, 51.64078521728516]}, {"name": "Tong Medical Practice", "coordinates": [-1.7167800664901731, 53.77049255371094]}, {"name": "Comberton & Eversden Surgeries", "coordinates": [0.01862882263958454, 52.18981170654297]}, {"name": "The Doctors House", "coordinates": [0.09420500695705411, 51.56538772583008]}, {"name": "Sorrel Bank Medical Practice", "coordinates": [-2.294800281524658, 53.49334716796875]}, {"name": "Beeches Surgery", "coordinates": [-0.1712834984064102, 51.35831451416016]}, {"name": "Brownlow Health @ Princes Park", "coordinates": [-2.9520103931427, 53.39147567749024]}, {"name": "South Birmingham Urgent Treatment Centre", "coordinates": [-1.9391295909881592, 52.438255310058594]}, {"name": "Plashet Medical Centre", "coordinates": [0.03303736448287964, 51.53749084472656]}, {"name": "Great Witley Surgery", "coordinates": [-2.3609931468963623, 52.291141510009766]}, {"name": "The Murree Medical Centre", "coordinates": [0.510546326637268, 51.57810974121094]}, {"name": "The Parks Medical Practice ", "coordinates": [-2.1215813159942627, 53.56609725952149]}, {"name": "Hama Medical Centre", "coordinates": [-1.25184166431427, 52.996139526367195]}, {"name": "Woodcock Road Surgery", "coordinates": [1.281008005142212, 52.652530670166016]}, {"name": "Dr T M Craze and Partners", "coordinates": [-5.232400894165039, 50.23436737060546]}, {"name": "Eastham Group Practice", "coordinates": [-2.9718778133392334, 53.3222885131836]}, {"name": "Quayside Medical Practice", "coordinates": [-2.1567342281341557, 53.50984191894531]}, {"name": "Long Furlong Medical Centre", "coordinates": [-1.275139093399048, 51.68815994262695]}, {"name": "Haldon House Surgery", "coordinates": [-3.416287422180176, 50.61977005004882]}, {"name": "Netherley Health Centre", "coordinates": [-2.839574098587036, 53.388282775878906]}, {"name": "Victoria and Mapperley Practice", "coordinates": [-1.1245120763778689, 52.98207473754882]}, {"name": "Islington House Medical Centre", "coordinates": [-2.964590549468994, 53.415794372558594]}, {"name": "Wellington Medical Centre ", "coordinates": [-3.233196496963501, 50.97558975219727]}, {"name": "Garswood Surgery", "coordinates": [-2.6813793182373047, 53.49639892578125]}, {"name": "Asa Medical Group", "coordinates": [-1.06180739402771, 53.53971099853516]}, {"name": "Church Walk Surgery", "coordinates": [-0.3997146189212799, 53.13783264160156]}, {"name": "Vineyard Hill Road Surgery", "coordinates": [-0.2011919021606445, 51.43186950683594]}, {"name": "Clift Surgery", "coordinates": [-1.0668787956237793, 51.33143615722656]}, {"name": "Priory Road Medical Centre", "coordinates": [-1.747797608375549, 51.552764892578125]}, {"name": "Blue Wing Family Doctor Unit", "coordinates": [-0.3717402219772338, 51.46826553344727]}, {"name": "Wansford", "coordinates": [-0.4216971099376678, 52.57883834838867]}, {"name": "Kenyon Medical Centres", "coordinates": [-1.4430837631225586, 52.39984893798828]}, {"name": "Forty Willows Surgery", "coordinates": [-0.2706656455993652, 51.56578826904297]}, {"name": "West Speke Health Centre", "coordinates": [-2.8554375171661377, 53.34479904174805]}, {"name": "DRS PALACIN & GUYLER", "coordinates": [0.7875057458877563, 51.52988052368164]}, {"name": "Woodcote Medical", "coordinates": [-0.1262925863265991, 51.34224319458008]}, {"name": "Dr A Bisarya", "coordinates": [-2.8067328929901123, 53.5501708984375]}, {"name": "Wetherby Surgery", "coordinates": [-1.3788496255874634, 53.93102264404297]}, {"name": "Harrold Medical Practice", "coordinates": [-0.6052057147026062, 52.20255661010742]}, {"name": "Park Lane Surgery", "coordinates": [-0.02123010717332363, 51.74651336669922]}, {"name": "Mollison Way Surgery", "coordinates": [-0.2786245346069335, 51.59763717651367]}, {"name": "CHICHELE ROAD SURGERY", "coordinates": [-0.2162518352270126, 51.55482864379882]}, {"name": "Allerton Medical Centre", "coordinates": [-1.5338640213012695, 53.82692337036133]}, {"name": "High Road Surgery, Wood Green GP Surgery Wood Green", "coordinates": [-0.1101826503872871, 51.600433349609375]}, {"name": "Southdene Medical Centre", "coordinates": [-1.3861323595046997, 54.76323699951172]}, {"name": "Grove House SUrgery", "coordinates": [-1.2023112773895264, 50.59495544433594]}, {"name": "Cliff House Medical Practice", "coordinates": [-0.5450010299682617, 53.23887634277344]}, {"name": "The Orchard Surgery", "coordinates": [-0.324337899684906, 50.82806396484375]}, {"name": "Dr Khokher & Partners", "coordinates": [-0.4930606484413147, 52.13315200805664]}, {"name": "Millennium Medical Centre", "coordinates": [-1.9669322967529297, 52.43763732910156]}, {"name": "The Mount View Practice", "coordinates": [-3.0104010105133057, 53.92095947265625]}, {"name": "Kingsway Medical Centre", "coordinates": [-1.28899347782135, 54.606460571289055]}, {"name": "The Orchard Surgery", "coordinates": [-0.4522249698638916, 51.42858123779297]}, {"name": "St Mary\u0092s Island Surgery", "coordinates": [0.5380901098251342, 51.406776428222656]}, {"name": "Queens Park Health Centre", "coordinates": [-0.2076266556978225, 51.53057861328125]}, {"name": "Care Homes Medical Practice", "coordinates": [-2.279040575027466, 53.48054885864258]}, {"name": "Highfield Surgery", "coordinates": [-0.7109928131103515, 51.650047302246094]}, {"name": "Beaufort Road Surgery", "coordinates": [-1.8148270845413208, 50.7281494140625]}, {"name": "The Alney Practice", "coordinates": [-2.299142360687256, 51.88422393798828]}, {"name": "Crown Street Surgery", "coordinates": [-1.3145989179611206, 53.48771286010742]}, {"name": "The Pool Medical Centre", "coordinates": [-1.8976951837539675, 52.27071380615234]}, {"name": "DELTA Healthcare", "coordinates": [-0.2928198873996734, 53.7642822265625]}, {"name": "Scots Gap Surgery", "coordinates": [-1.940547466278076, 55.172748565673835]}, {"name": "Lattimore and Village Surgery", "coordinates": [-0.2985325753688812, 51.72624588012695]}, {"name": "Caythorpe & Ancaster Medical Practice", "coordinates": [-0.5363125801086425, 52.98185348510742]}, {"name": "Stanley Corner Medical Centre", "coordinates": [-0.296604573726654, 51.54425048828125]}, {"name": "Silverdale Practice", "coordinates": [-0.121693342924118, 50.95284271240234]}, {"name": "Oakmeadow Surgery", "coordinates": [-1.196690320968628, 52.63998794555664]}, {"name": "Winterton Surgery", "coordinates": [0.07045160979032516, 51.26646423339844]}, {"name": "Mile Oak Medical Centre", "coordinates": [-0.2265589833259582, 50.851295471191406]}, {"name": "Churchdown Surgery", "coordinates": [-2.185537576675415, 51.88655853271485]}, {"name": "Birchwood Surgery", "coordinates": [-0.2251016795635223, 51.98249053955078]}, {"name": "New Seaham Medical Group", "coordinates": [-1.365306377410889, 54.83479690551758]}, {"name": "Manor Park Medical Practice (Parker Drive)", "coordinates": [-1.143052577972412, 52.65626907348633]}, {"name": "Ripley Medical Centre", "coordinates": [-1.40570867061615, 53.04704284667969]}, {"name": "North Road Surgery", "coordinates": [-0.285364955663681, 51.4741439819336]}, {"name": "Princess Road Surgery", "coordinates": [-2.243610620498657, 53.44037628173828]}, {"name": "Glastonbury Health Centre", "coordinates": [-2.712878942489624, 51.148738861083984]}, {"name": "Temple Fortune Medical Group ", "coordinates": [-0.1978310048580169, 51.581100463867195]}, {"name": "The Lindley Village Surg.", "coordinates": [-1.8256951570510864, 53.66133499145508]}, {"name": "Riverside Medical Centre", "coordinates": [-2.672284841537476, 53.74811553955078]}, {"name": "Hamstead Road Surgery", "coordinates": [-1.9189732074737549, 52.50448989868164]}, {"name": "The Pendle Medical Partnership", "coordinates": [-2.144277334213257, 53.91595077514648]}, {"name": "Wellfield Medical Centre ", "coordinates": [-2.242004156112671, 53.51255035400391]}, {"name": "Haslingden Healthcare", "coordinates": [-2.324658870697021, 53.70395660400391]}, {"name": "Lakeside and Forest Gate Surgery", "coordinates": [-0.7130751013755798, 52.490478515625]}, {"name": "Higherland Surgery", "coordinates": [-2.232677698135376, 53.00905990600586]}, {"name": "Carisbrooke Surgery", "coordinates": [0.5295431017875671, 50.85226058959961]}, {"name": "The Bailey Practice", "coordinates": [-0.007259791251271963, 51.58384704589844]}, {"name": "The Westgate Practice", "coordinates": [-1.821160912513733, 52.68354034423828]}, {"name": "The Village Medcial Centre", "coordinates": [-1.2418678998947144, 54.56227493286133]}, {"name": "Deptford Medical Centre", "coordinates": [-0.027075542137026787, 51.47453308105469]}, {"name": "Broom Leys Surgery", "coordinates": [-1.3498327732086182, 52.72288513183594]}, {"name": "Cherrymead Surgery", "coordinates": [-0.7002332806587219, 51.60826873779297]}, {"name": "Market Cross Surgery", "coordinates": [0.5101609230041503, 52.343505859375]}, {"name": "Charles Road Surgery", "coordinates": [-1.8506067991256716, 52.47220230102539]}, {"name": "Lilyville @ Parsons Green", "coordinates": [-0.1991409957408905, 51.47377014160156]}, {"name": "Waterloo Health Centre", "coordinates": [-0.1132258623838424, 51.500465393066406]}, {"name": "Cleggs Lane Med Practice", "coordinates": [-2.419320821762085, 53.534942626953125]}, {"name": "Sms Medical Practice", "coordinates": [-0.306770920753479, 51.549713134765625]}, {"name": "The Garden Surgery ", "coordinates": [-1.4978426694869995, 53.800235748291016]}, {"name": "Dr Ross and Partners", "coordinates": [-1.9757717847824097, 52.412761688232415]}, {"name": "Bourne Galletly Practice Team", "coordinates": [-0.3767662346363067, 52.77569961547852]}, {"name": "Nelson Medical Practice", "coordinates": [-2.2188353538513184, 53.83804702758789]}, {"name": "Greet Medical Practice", "coordinates": [-1.857763648033142, 52.45319747924805]}, {"name": "Brookfield Surgery", "coordinates": [-2.4812157154083248, 53.38230895996094]}, {"name": "Corfe Castle Surgery", "coordinates": [-2.059436321258545, 50.63587188720703]}, {"name": "Crawley road medical centre", "coordinates": [-0.011304297484457493, 51.56427383422852]}, {"name": "Dr A Singh and Dr S Bicha", "coordinates": [-2.838778257369995, 53.34091567993164]}, {"name": "The Willows Northampton", "coordinates": [-0.8348982334136962, 52.258087158203125]}, {"name": "The Grove Medical Centre", "coordinates": [-0.5451781153678894, 51.43088912963867]}, {"name": "Stockport Medical Group", "coordinates": [-2.1777732372283936, 53.402877807617195]}, {"name": "Park Road & Menston", "coordinates": [-1.7113672494888306, 53.871746063232415]}, {"name": "The Mounts Medical Centre", "coordinates": [-0.897251307964325, 52.242233276367195]}, {"name": "Bloxham & Hook Norton Surgery", "coordinates": [-1.372962474822998, 52.018112182617195]}, {"name": "Barton Surgery", "coordinates": [-1.6614001989364624, 50.74581909179688]}, {"name": "Dunsville Medical Centre", "coordinates": [-1.0278151035308838, 53.56254196166992]}, {"name": "Dr CM Patel's Surgery", "coordinates": [0.035398684442043304, 51.54096603393555]}, {"name": "240 Wexham Road Surgery", "coordinates": [-0.5783843398094177, 51.51689910888672]}, {"name": "Russell Street Surgery", "coordinates": [-0.982874035835266, 51.45232772827149]}, {"name": "College Road Surgery", "coordinates": [-0.539810061454773, 51.32257080078125]}, {"name": "Vel Surgery", "coordinates": [0.766653299331665, 51.43611907958984]}, {"name": "Audlem Medical Practice", "coordinates": [-2.508702039718628, 52.98962020874024]}, {"name": "Grosvenor Medical Centre", "coordinates": [-2.059090614318848, 53.4814567565918]}, {"name": "Eccleston Medical Centre Parnership", "coordinates": [-2.7695472240448, 53.45220565795898]}, {"name": "Regent Street Surgery", "coordinates": [-2.2836015224456787, 51.744171142578125]}, {"name": "Oakham Medical Practice", "coordinates": [-0.7375247478485107, 52.67080307006836]}, {"name": "Prestbury Park Medical", "coordinates": [-2.0560379028320317, 51.91058349609375]}, {"name": "XX Place Health Centre", "coordinates": [-0.04219195991754532, 51.525047302246094]}, {"name": "Cedar House Surgery", "coordinates": [-2.15302848815918, 53.3937873840332]}, {"name": "Shenley Green Surgery", "coordinates": [-1.973881959915161, 52.42643737792969]}, {"name": "St James' Surgery", "coordinates": [1.315828800201416, 51.12849426269531]}, {"name": "Hill Street Surgery", "coordinates": [-2.070159673690796, 52.55298614501953]}, {"name": "GRAFTON ROAD SURGERY", "coordinates": [-1.8684349060058596, 52.40775680541992]}, {"name": "Abbeyview Surgery", "coordinates": [-0.1635520160198211, 52.67193984985352]}, {"name": "The Calverton Practice", "coordinates": [-1.0818926095962524, 53.03713607788086]}, {"name": "Miriam Primary Care Group", "coordinates": [-3.046536445617676, 53.398250579833984]}, {"name": "Cobtree (Branch Surgery)", "coordinates": [0.5912107229232788, 51.215816497802734]}, {"name": "Ann Jones Family Health Centre ", "coordinates": [-1.871318221092224, 52.46266174316406]}, {"name": "The Ivy Medical Group", "coordinates": [-1.0423953533172607, 52.98822784423828]}, {"name": "The Surgery ", "coordinates": [-0.08163721859455107, 51.57365798950195]}, {"name": "Kingshead Medical Practice", "coordinates": [-0.0114333489909768, 51.63568878173828]}, {"name": "Moss Grove Surgery", "coordinates": [-2.169885873794556, 52.49867630004882]}, {"name": "Orchard Croft Medical Centre", "coordinates": [-1.5498250722885132, 53.660003662109375]}, {"name": "Lowfield Medical Centre", "coordinates": [0.2155546694993972, 51.441837310791016]}, {"name": "Warley Road Surgery", "coordinates": [-1.9937120676040647, 52.490196228027344]}, {"name": "Dr M Thornton and Partners", "coordinates": [-0.5968912839889526, 53.18757629394531]}, {"name": "Branch End Surgery", "coordinates": [-1.897775411605835, 54.94713592529297]}, {"name": "Westbury Surgery", "coordinates": [-2.404636144638061, 51.821231842041016]}, {"name": "Handsworth Medical Practice", "coordinates": [-1.941571354866028, 52.505401611328125]}, {"name": "Hornsey Park Surgery", "coordinates": [-0.1092165261507034, 51.58927536010742]}, {"name": "High Pastures Surgery", "coordinates": [-2.9465208053588867, 53.51938247680664]}, {"name": "Mount Pleasant Med Centre", "coordinates": [-1.637279391288757, 53.70703887939453]}, {"name": "St. Stephens Gate medcial Partnership", "coordinates": [1.2868499755859375, 52.623966217041016]}, {"name": "Shiregreen Medical Centre", "coordinates": [-1.4405817985534668, 53.43006896972656]}, {"name": "Derby Road Surgery", "coordinates": [-1.0821855068206787, 50.81583023071289]}, {"name": "Horsmans Place Partnership", "coordinates": [0.2149664461612701, 51.44246673583984]}, {"name": "Drs. Lewis, Dixon & Richbell", "coordinates": [-2.108538866043091, 53.54362869262695]}, {"name": "Burgess Road Surgery", "coordinates": [-1.385792255401611, 50.93868255615234]}, {"name": "Paston Surgery", "coordinates": [1.3833335638046265, 52.82003402709961]}, {"name": "New Hayesbank Surgery", "coordinates": [0.8773632049560546, 51.15761566162109]}, {"name": "Guide Post Medical Group", "coordinates": [-1.6040939092636108, 55.157581329345696]}, {"name": "Cromwell Medical Centre", "coordinates": [-0.05006423592567444, 51.701953887939446]}, {"name": "Riverside Medical Practice", "coordinates": [-2.7574553489685054, 52.70830535888672]}, {"name": "Windsor House Group Practice", "coordinates": [-1.6531655788421633, 53.75374221801758]}, {"name": "Drs Chiu, Koh and Gan's Practice", "coordinates": [-2.224982976913452, 53.47055435180664]}, {"name": "Riverside Surgery", "coordinates": [-1.9478675127029417, 52.08663940429688]}, {"name": "King Edward Road Surgery", "coordinates": [-0.8664079308509826, 52.242767333984375]}, {"name": "Woodgrange Medical Practice", "coordinates": [0.025267748162150383, 51.5485954284668]}, {"name": "Colby Medical Centre", "coordinates": [-2.8427927494049072, 53.419532775878906]}, {"name": "Bramhall & Shaw Heath Medical Group", "coordinates": [-2.1623294353485107, 53.37604141235352]}, {"name": "Sandhurst Group Practice", "coordinates": [-0.7982677817344666, 51.3454704284668]}, {"name": "Ridgacre House Surgery", "coordinates": [-1.9900954961776731, 52.460914611816406]}, {"name": "Castlegate Surgery", "coordinates": [-3.358484506607056, 54.667190551757805]}, {"name": "Ramsbottom Group Practice", "coordinates": [-2.319272518157959, 53.648784637451165]}, {"name": "Cofton Medical Centre", "coordinates": [-1.9667892456054688, 52.39274978637695]}, {"name": "Church Avenue Medical Group", "coordinates": [-1.5357415676116943, 54.006023406982415]}, {"name": "Dickens Place", "coordinates": [0.445560336112976, 51.754676818847656]}, {"name": "Elvington Medical Practice", "coordinates": [-0.9488147497177124, 53.924999237060554]}, {"name": "BRIDGE MEDICAL CENTRE", "coordinates": [-0.1664246618747711, 51.11736297607422]}, {"name": "Park View Surgery", "coordinates": [-1.1615467071533203, 53.521575927734375]}, {"name": "St Stephen's Health Centre", "coordinates": [-0.031175855547189716, 51.53245162963867]}, {"name": "Denmark Street Surgery", "coordinates": [-1.552236557006836, 54.53882598876953]}, {"name": "Dr B Baskaran & Partners", "coordinates": [-0.01856960542500019, 51.344383239746094]}, {"name": "Locala-CIC", "coordinates": [-1.871821880340576, 53.725467681884766]}, {"name": "Dr Victoria Muir's Practice", "coordinates": [-0.1513432115316391, 51.49065017700195]}, {"name": "Newburn Surgery", "coordinates": [-1.7435988187789917, 54.985645294189446]}, {"name": "The New Surgery", "coordinates": [-1.3337080478668213, 53.48873519897461]}, {"name": "The Health Centre", "coordinates": [0.07081633806228638, 51.84872817993164]}, {"name": "Sleights and Sandsend Medical Practice", "coordinates": [-0.659629225730896, 54.452007293701165]}, {"name": "Woodlands Family Practice", "coordinates": [0.5666567683219909, 51.37841796875]}, {"name": "Oldham Family Practice", "coordinates": [-2.116929769515991, 53.543827056884766]}, {"name": "Sundridge Medical Practice", "coordinates": [0.014755483716726305, 51.414676666259766]}, {"name": "Whiteparish Surgery", "coordinates": [-1.6507209539413452, 51.00931167602539]}, {"name": "The Orient Practice", "coordinates": [-0.013298838399350643, 51.55989456176758]}, {"name": "University Health Service", "coordinates": [-1.4826949834823608, 53.38030624389648]}, {"name": "Emersons Green Medical Centre", "coordinates": [-2.4770092964172363, 51.492767333984375]}, {"name": "Clarendon Medical Centre", "coordinates": [-1.7634718418121338, 53.801513671875]}, {"name": "Testvale Surgery", "coordinates": [-1.489883542060852, 50.91940689086913]}, {"name": "Chestnut Practice", "coordinates": [-0.3717402219772338, 51.46826553344727]}, {"name": "Church Street Practice", "coordinates": [-1.425832986831665, 51.5987663269043]}, {"name": "Thornaby & Barwick Medical Group", "coordinates": [-1.2921129465103147, 54.53815078735352]}, {"name": "Oaks Place Surgery", "coordinates": [-2.735690832138061, 53.362163543701165]}, {"name": "Werneth Medical Practice", "coordinates": [-2.1269235610961914, 53.53497314453125]}, {"name": "The Hedges Medical Centre", "coordinates": [-1.1467266082763672, 52.59128952026367]}, {"name": "Ashcroft Surgery", "coordinates": [-1.7121117115020752, 53.82307815551758]}, {"name": "  Wellington Road Family Practice", "coordinates": [-2.4177465438842773, 51.54891204833984]}, {"name": "Hickings Lane Medical Centre", "coordinates": [-1.264420747756958, 52.93624114990234]}, {"name": "The Scott Practice", "coordinates": [-1.151414155960083, 53.50706100463867]}, {"name": "FirstCare Practice ", "coordinates": [-1.8880516290664675, 52.45739364624024]}, {"name": "Theobald Centre", "coordinates": [-0.2855938374996185, 51.661376953125]}, {"name": "Heathfield Family Centre", "coordinates": [-1.9100711345672607, 52.506343841552734]}, {"name": "Bridge Street Medical Practice", "coordinates": [-1.207152247428894, 52.77482223510742]}, {"name": "Saxon Cross Surgery ", "coordinates": [-1.2817659378051758, 52.92387008666992]}, {"name": "Dr N J Wilson & Dr J F Matthews", "coordinates": [-1.0564029216766355, 54.24924087524414]}, {"name": "Topcliffe Surgery", "coordinates": [-1.3846886157989502, 54.17779159545898]}, {"name": "Golden Valley Practice", "coordinates": [-2.891836643218994, 51.952667236328125]}, {"name": "Fullwell Cross Medical Centre", "coordinates": [0.0837966948747635, 51.59461975097656]}, {"name": "Purbeck Health Centre", "coordinates": [-0.7739009857177734, 52.0613670349121]}, {"name": "Jaunty Springs Health Centre", "coordinates": [-1.4178814888000488, 53.3476676940918]}, {"name": "East Leake Medical Group", "coordinates": [-1.1771143674850464, 52.834030151367195]}, {"name": "Church Langley Medical Practice", "coordinates": [0.1327212154865264, 51.76747131347656]}, {"name": "Whitworth Medical Centre", "coordinates": [-2.1739418506622314, 53.661170959472656]}, {"name": "Sunlight Group Practice (Parkfield Medical Centre)", "coordinates": [-3.000035762786865, 53.36307907104492]}, {"name": "Wessex Road Surgery", "coordinates": [-1.9515551328659055, 50.72289276123047]}, {"name": "St Wulfstan Surgery", "coordinates": [-1.3983092308044434, 52.2476921081543]}, {"name": "Queensway ", "coordinates": [-2.9953691959381104, 53.84657287597656]}, {"name": "77 Ware Road Surgery", "coordinates": [-0.06321673840284348, 51.7995491027832]}, {"name": "Pastures Way Surgery", "coordinates": [-0.4867861568927764, 51.90140914916992]}, {"name": "Stanhope Surgery", "coordinates": [-0.03205834701657295, 51.688003540039055]}, {"name": "Ardleigh Surgery", "coordinates": [0.9851108789443968, 51.927070617675774]}, {"name": "Oak Tree Surgery", "coordinates": [-4.451910495758057, 50.46073532104492]}, {"name": "Ashington House Surgery", "coordinates": [-1.8266005516052248, 51.557476043701165]}, {"name": "The Vine Medical Centre", "coordinates": [0.5153861045837402, 51.2709846496582]}, {"name": "Dr.Sullivan & Partners", "coordinates": [-0.05527300760149956, 51.71379089355469]}, {"name": "Riverside Medical Practice", "coordinates": [-0.3359487056732177, 51.061031341552734]}, {"name": "Parchmore Medical Centre", "coordinates": [-0.1005670353770256, 51.40149688720703]}, {"name": "Stanmore House Surgery", "coordinates": [-2.231453657150269, 52.391143798828125]}, {"name": "Grove House Surgery", "coordinates": [-2.557724714279175, 51.18732833862305]}, {"name": "Davyhulme Medical Centre", "coordinates": [-2.366767168045044, 53.459487915039055]}, {"name": "Modern Medical Centre", "coordinates": [0.1776064336299896, 51.5654182434082]}, {"name": "Winton Health Centre ", "coordinates": [-1.8763576745986936, 50.73960876464844]}, {"name": "Crown Surgery", "coordinates": [-2.2535004615783687, 52.85941696166992]}, {"name": "The Jalal Practice", "coordinates": [-2.116929769515991, 53.543827056884766]}, {"name": "Market Rasen Surgery", "coordinates": [-0.3407896161079406, 53.3843879699707]}, {"name": "The Forest Surgery", "coordinates": [-0.005022200755774975, 51.5947265625]}, {"name": "Abington Medical Centre", "coordinates": [-0.8658767342567443, 52.2532615661621]}, {"name": "Central Surgery", "coordinates": [-2.742595195770264, 53.45669174194336]}, {"name": "Wrythe Green Surgery", "coordinates": [-0.1712992340326309, 51.37198257446289]}, {"name": "Stovell House Surgery", "coordinates": [-0.07536382228136063, 51.37889862060546]}, {"name": "Dr Akbar", "coordinates": [-0.14905247092247, 51.44084930419922]}, {"name": "East End Medical Centre", "coordinates": [0.02524256333708763, 51.53731155395508]}, {"name": "Ryecroft Surgery ", "coordinates": [-2.2289340496063232, 53.0141487121582]}, {"name": "University Southgate Practice", "coordinates": [-1.9137941598892207, 52.43303298950195]}, {"name": "Larksfield Surgery Medical Partnership", "coordinates": [-0.2350980639457702, 52.01713180541992]}, {"name": "Stoney Stanton Medical Centre", "coordinates": [-1.4946663379669187, 52.423534393310554]}, {"name": "Cumberland House Surgery", "coordinates": [-2.990422487258911, 53.63872909545898]}, {"name": "Grove Surgery", "coordinates": [0.1225547865033149, 51.576473236083984]}, {"name": "Cornerways Medical Centre", "coordinates": [-2.855906248092652, 53.422889709472656]}, {"name": "Moatfield Surgery: moatfield.surgery@nhs.net", "coordinates": [-0.013051675632596016, 51.131683349609375]}, {"name": "Haresfield Surgery", "coordinates": [-2.202986001968384, 52.194820404052734]}, {"name": "Portslade Health Centre Medical Practice", "coordinates": [-0.2132382541894912, 50.83367919921875]}, {"name": "St Osyth Surgery", "coordinates": [1.1474474668502808, 51.78732299804688]}, {"name": "Buxted Medical Centre", "coordinates": [0.1321094036102294, 50.98940658569336]}, {"name": "Central Surgery", "coordinates": [-0.2999368906021118, 51.39082717895508]}, {"name": "Cadbury Heath Healthcare ", "coordinates": [-2.4886369705200195, 51.447311401367195]}, {"name": "Sydenham Group Practice", "coordinates": [-0.3619371354579925, 53.735546112060554]}, {"name": "Drs Sanomi & Olajide", "coordinates": [0.1759823858737945, 51.56071853637695]}, {"name": "Eltham Palace Surgery", "coordinates": [0.050838813185691833, 51.449382781982415]}, {"name": "Sunfield Medical Centre", "coordinates": [-1.6682503223419187, 53.806419372558594]}, {"name": "Junction Medical Practice ", "coordinates": [-0.1365580111742019, 51.557178497314446]}, {"name": "Fordhouses Medical Centre", "coordinates": [-2.132178544998169, 52.62194061279297]}, {"name": "Spring Gardens Group Medical Practice", "coordinates": [-2.2163569927215576, 52.19166946411133]}, {"name": "Wadebridge & Camel Estuary Practice", "coordinates": [-4.835716724395752, 50.51482391357422]}, {"name": "WESTBOURNE SURGERY", "coordinates": [-1.806085467338562, 53.65093994140625]}, {"name": "SILVERDALE MEDICAL CENTRE", "coordinates": [-1.090503811836243, 52.67230224609375]}, {"name": "Wellington Health Centre", "coordinates": [-0.1712700277566909, 51.532276153564446]}, {"name": "Whitwick Road Surgery", "coordinates": [-1.3671411275863647, 52.72697067260742]}, {"name": "The Cuckoo Lane Practice", "coordinates": [-0.3389051258563995, 51.51487731933594]}, {"name": "Denaby Medical Practice", "coordinates": [-1.2457770109176636, 53.49066925048828]}, {"name": "The Firs", "coordinates": [-0.03511295095086098, 51.58029556274414]}, {"name": "The Hoxton Surgery", "coordinates": [-0.08681415766477583, 51.53352737426758]}, {"name": "Trinity Surgery", "coordinates": [0.1639213114976882, 52.66569900512695]}, {"name": "Petersfield Surgery", "coordinates": [0.2328111827373504, 51.60572052001953]}, {"name": "Manchester Road Medical Centre", "coordinates": [-2.3776354789733887, 53.30604553222656]}, {"name": "Kincora Doctors Surgery", "coordinates": [-0.4122016727924346, 51.51166534423828]}, {"name": "Tangmere Medical Centre", "coordinates": [-0.7184358835220336, 50.85102462768555]}, {"name": "Astley General Practice", "coordinates": [-2.4582512378692627, 53.50041961669922]}, {"name": "Allesley Village Surgery", "coordinates": [-1.5684173107147217, 52.42469787597656]}, {"name": "Broadshires Health Centre", "coordinates": [-1.586701512336731, 51.76504135131836]}, {"name": "Market Street Health Group", "coordinates": [0.0575036071240902, 51.5309944152832]}, {"name": "Shannon Court Surgery", "coordinates": [-0.2866308689117431, 52.128379821777344]}, {"name": "St James Medical Practice", "coordinates": [0.4015925526618957, 52.75200653076172]}, {"name": "Shakespeare Surgery", "coordinates": [-2.643757104873657, 53.529396057128906]}, {"name": "The White House Surgery", "coordinates": [1.1460704803466797, 51.08742904663086]}, {"name": "The Kingsway Practice", "coordinates": [-2.1355743408203125, 53.61215591430664]}, {"name": "LEESBROOK SURGERY", "coordinates": [-2.0726451873779297, 53.538795471191406]}, {"name": "Aintree Park Group Practice", "coordinates": [-2.967282772064209, 53.46280288696289]}, {"name": "Buckden and Little Paxton Surgery", "coordinates": [-0.2541593611240387, 52.29176330566406]}, {"name": "Handforth Health Centre", "coordinates": [-2.2144806385040283, 53.347652435302734]}, {"name": "Brook Street Surgery ", "coordinates": [-1.7989743947982788, 53.638309478759766]}, {"name": "Lyndhurst Medical Centre", "coordinates": [0.1587801724672317, 51.461250305175774]}, {"name": "Halfway Surgery", "coordinates": [0.5241715908050537, 51.38042831420898]}, {"name": "Fulwell Medical Centre", "coordinates": [-1.3829960823059082, 54.930488586425774]}, {"name": "Warwick Gates Fam.Hth.Ctr", "coordinates": [-1.5386759042739868, 52.26866912841797]}, {"name": "Patience Lane Surgery", "coordinates": [-1.4336724281311035, 53.70380401611328]}, {"name": "The Saluja Clinic", "coordinates": [-0.3804158568382263, 51.512741088867195]}, {"name": "The Dower House Surgery", "coordinates": [-1.2915139198303225, 50.69963455200195]}, {"name": "Eastlands Medical Practice", "coordinates": [-2.1841418743133545, 53.48431015014648]}, {"name": "Castleford Medical Practice", "coordinates": [-1.3551836013793943, 53.72504425048828]}, {"name": "Woodside Medical Centre ", "coordinates": [-2.2132716178894043, 53.556350708007805]}, {"name": "Highwoods Surgery Colchester", "coordinates": [0.9182478189468384, 51.911087036132805]}, {"name": "The Billericay Medical Practice", "coordinates": [0.4225261509418487, 51.631229400634766]}, {"name": "Unity Health", "coordinates": [-1.0751934051513672, 53.946487426757805]}, {"name": "Morecambe Surgery", "coordinates": [-0.08552881330251692, 51.617721557617195]}, {"name": "Grove Surgery", "coordinates": [0.7514916062355042, 52.41543960571289]}, {"name": "Old Mill Surgery", "coordinates": [-1.474920630455017, 52.51974868774414]}, {"name": "The Almondbury Surgery", "coordinates": [-1.751294732093811, 53.63185501098633]}, {"name": "Abbey Road Medical; Practice", "coordinates": [0.005895244423300028, 51.53478240966797]}, {"name": "Derwent Medical Centre", "coordinates": [-1.4807360172271729, 52.92932891845703]}, {"name": "The Mill Medical Group", "coordinates": [-0.5962850451469421, 51.190742492675774]}, {"name": "The Roseberry Practice", "coordinates": [-1.292199730873108, 54.61172866821289]}, {"name": "NORTHFIELD MEDICAL CENTRE", "coordinates": [-1.164362907409668, 52.576751708984375]}, {"name": "Greenbank Road Surgery", "coordinates": [-2.9247100353240967, 53.38765335083008]}, {"name": "Tessa Jowell GP Surgery", "coordinates": [-0.08052247762680052, 51.45923614501953]}, {"name": "Kennedy Way Medical Centre", "coordinates": [1.1660189628601074, 51.80358123779297]}, {"name": "Manor Road Surgery", "coordinates": [1.3858472108840942, 51.21475601196289]}, {"name": "Deane Medical Centre", "coordinates": [-2.454873561859131, 53.56083679199219]}, {"name": "Dr Swedan And Partner", "coordinates": [0.02490874379873276, 51.55057907104492]}, {"name": "Barrow Health Centre", "coordinates": [-1.1490803956985474, 52.75160598754882]}, {"name": "Queen Camel Medical Centre", "coordinates": [-2.5796713829040527, 51.0181770324707]}, {"name": "Chapel Street Surgery", "coordinates": [0.05113018676638603, 50.79327392578125]}, {"name": "Billinghay Medical Practice", "coordinates": [-0.277951031923294, 53.07868576049805]}, {"name": "Barlow Medical Centre", "coordinates": [-2.231419563293457, 53.41316604614258]}, {"name": "Stuart Crescent Medical Practice", "coordinates": [-0.1101826503872871, 51.600433349609375]}, {"name": "Manor Park Medical Centre", "coordinates": [-0.6001004576683044, 51.5245361328125]}, {"name": "Woodhouse Hill Surgery", "coordinates": [-1.7709615230560305, 53.66668701171875]}, {"name": "Orchard 2000 Medical Centre", "coordinates": [-0.3700065612792968, 53.78637313842773]}, {"name": "Buttercross Health Centre", "coordinates": [-2.7309253215789795, 51.05573654174805]}, {"name": "Lance Lane Medical Centre", "coordinates": [-2.9119017124176025, 53.39620208740234]}, {"name": "Stowhealth", "coordinates": [0.9904022812843322, 52.1946678161621]}, {"name": "Lincoln House Surgery", "coordinates": [-3.012194395065308, 53.61878967285156]}, {"name": "Chelston Hall Surgery", "coordinates": [-3.5471224784851074, 50.46329879760742]}, {"name": "Westwood Medical H/Centre", "coordinates": [-1.5605021715164185, 52.40432357788086]}, {"name": "West Farm Surgery", "coordinates": [-1.5840424299240112, 55.012065887451165]}, {"name": "The Cornerstone Practice", "coordinates": [-2.452386379241944, 53.73918914794922]}, {"name": "Willerby & Swanland Surgery", "coordinates": [-0.4334957301616668, 53.74007034301758]}, {"name": "Dr. Bekas Medical Practice", "coordinates": [0.6938652396202087, 51.54206085205078]}, {"name": "The Alton Practice", "coordinates": [-0.2393855452537536, 51.44913101196289]}, {"name": "Matching Green Surgery", "coordinates": [0.4812584221363067, 51.5828514099121]}, {"name": "Fishergate Hill Surgery ", "coordinates": [-2.7143514156341557, 53.754444122314446]}, {"name": "Goring & Woodcote Medical Practice", "coordinates": [-1.1343588829040527, 51.52236557006836]}, {"name": "Woodlands Surgery", "coordinates": [-0.1716245710849762, 51.230953216552734]}, {"name": "Burnt Ash Surgery", "coordinates": [0.009926998987793922, 51.452781677246094]}, {"name": "College Way Surgery", "coordinates": [-3.1212844848632812, 51.005252838134766]}, {"name": "Cornhill Surgery", "coordinates": [-2.0231151580810547, 52.392356872558594]}, {"name": "Dr Ndh Jones & Partners", "coordinates": [-2.282765388488769, 51.74709701538086]}, {"name": "Tilehurst Village Surgery", "coordinates": [-1.0422545671463013, 51.46123504638672]}, {"name": "Cottenham Surgery", "coordinates": [0.1246023029088974, 52.28926849365234]}, {"name": "Waterloo Medical Centre", "coordinates": [-2.103901624679565, 53.498783111572266]}, {"name": "The Tilbury Chadwell Group Practice", "coordinates": [0.3662338554859161, 51.460987091064446]}, {"name": "Monkseaton Medical Centre", "coordinates": [-1.4728046655654907, 55.03676223754882]}, {"name": "The Thornton Practice", "coordinates": [-3.0145387649536133, 53.8768310546875]}, {"name": "Chadderton Medical Practice", "coordinates": [-2.142167329788208, 53.54556274414063]}, {"name": "Westbourne Medical Group", "coordinates": [-1.4954490661621094, 54.86687088012695]}, {"name": "Jubilee Gardens Medical Centre", "coordinates": [-0.3687467873096466, 51.521095275878906]}, {"name": "The Park Medical Group", "coordinates": [-1.6681972742080688, 55.01251220703125]}, {"name": "Bishop's Close Medical Practice", "coordinates": [-1.599126935005188, 54.69982147216797]}, {"name": "Sheet Street Surgery", "coordinates": [-0.605492889881134, 51.47964859008789]}, {"name": "Fountains Medical Practice", "coordinates": [-2.892957925796509, 53.195098876953125]}, {"name": "Royston Group Practice", "coordinates": [-1.451003074645996, 53.600006103515625]}, {"name": "Memorial Medical Centre", "coordinates": [0.7365569472312927, 51.334598541259766]}, {"name": "Drs Sinha, Verma, Manohar & Anand", "coordinates": [-1.9833112955093384, 52.57756805419922]}, {"name": "The Limes Medical Centre", "coordinates": [1.3854087591171265, 51.39097595214844]}, {"name": "Figges Marsh Surgery", "coordinates": [-0.1619573384523391, 51.41079330444336]}, {"name": "East Norfolk Medical Practice", "coordinates": [1.7255418300628662, 52.61912536621094]}, {"name": "Grassendale Medical Practice", "coordinates": [-2.911282777786255, 53.36441040039063]}, {"name": "Humber Primary Care", "coordinates": [-0.1249312087893486, 54.11716842651367]}, {"name": "Roseland Surgeries", "coordinates": [-5.012653350830078, 50.16023254394531]}, {"name": "The Ingham Practice ", "coordinates": [-0.5770917534828186, 53.33659362792969]}, {"name": "Crook Log Surgery", "coordinates": [0.1306925415992736, 51.45845413208008]}, {"name": "The Homeless Health Exchange", "coordinates": [-1.8991414308547971, 52.486061096191406]}, {"name": "Latymer Road Surgery", "coordinates": [-0.06652198731899261, 51.62818145751953]}, {"name": "Falkland House Surgery", "coordinates": [-1.514407992362976, 53.359729766845696]}, {"name": "The New Surgery", "coordinates": [0.421091616153717, 51.63034057617188]}, {"name": "Bredon Avenue", "coordinates": [-1.4464503526687622, 52.399784088134766]}, {"name": "Dr S Chandran Practice", "coordinates": [0.766653299331665, 51.43611907958984]}, {"name": "Pitshanger Family Practice", "coordinates": [-0.3109340369701385, 51.52648162841797]}, {"name": "Wimbledon Village Surgery", "coordinates": [-0.2193871736526489, 51.42529296875]}, {"name": "Stable Fold Surgery", "coordinates": [-2.5234148502349854, 53.55239486694336]}, {"name": "Please choose \u0091Ariel Healthcare\u0092", "coordinates": [-2.9649901390075684, 50.86790084838867]}, {"name": "West Barnes Surgery", "coordinates": [-0.2336578667163848, 51.39764404296875]}, {"name": "Dr Rigby and Partners", "coordinates": [-2.8642306327819824, 53.431190490722656]}, {"name": "Gardiner Crescent Surgery", "coordinates": [-1.6097747087478638, 54.857864379882805]}, {"name": "Freuchen Medical Centre", "coordinates": [-0.2429844588041305, 51.53453063964844]}, {"name": "Bridgnorth Medical Practice", "coordinates": [-2.4229326248168945, 52.537879943847656]}, {"name": "Tudor House Medical Centre", "coordinates": [-0.2666747570037841, 51.56449508666992]}, {"name": "Clay Lane Medical Practice ", "coordinates": [-1.4828219413757324, 52.41277694702149]}, {"name": "Beauchief Medical Practice", "coordinates": [-1.4831035137176514, 53.339088439941406]}, {"name": "Kirkgate Surgery", "coordinates": [-1.6676064729690552, 53.73221969604492]}, {"name": "Woodsetton Medical Centre", "coordinates": [-2.1008760929107666, 52.53799819946289]}, {"name": "Woosehill Medical Centre", "coordinates": [-0.854396641254425, 51.41331481933594]}, {"name": "Castlefields Health Centre", "coordinates": [-2.691779851913452, 53.338809967041016]}, {"name": "Central Surgery", "coordinates": [-1.0821895599365234, 52.598979949951165]}, {"name": "West Common Lane Teaching Practice", "coordinates": [-0.6824264526367188, 53.57473373413086]}, {"name": "Leighton Road Surgery", "coordinates": [-0.6679354310035704, 51.91577911376953]}, {"name": "The Lindum Medical Practice", "coordinates": [-0.5238576531410217, 53.247589111328125]}, {"name": "Riverside Surgery", "coordinates": [-3.0061821937561035, 53.37200927734375]}, {"name": "Appleby Surgery", "coordinates": [-1.4565805196762085, 55.01119613647461]}, {"name": "Cape Hill Medical Centre", "coordinates": [-1.9542441368103027, 52.488407135009766]}, {"name": "Gladstone House Surgery", "coordinates": [-1.3075840473175049, 52.96794509887695]}, {"name": "Fore Street", "coordinates": [-2.9615719318389893, 50.873046875]}, {"name": "Accrington Victoria Health Access Centre", "coordinates": [-2.3669064044952397, 53.75958633422852]}, {"name": "Southbroom Surgery", "coordinates": [-1.989023208618164, 51.35229110717773]}, {"name": "The Lyndhurst Surgery", "coordinates": [-0.003854344831779599, 51.571964263916016]}, {"name": "Newtown Medical Practice", "coordinates": [-2.669682025909424, 53.53846740722656]}, {"name": "The Group Practice", "coordinates": [-2.0807461738586426, 52.599403381347656]}, {"name": "1/Salford Medical Practice", "coordinates": [-2.2945618629455566, 53.48720932006836]}, {"name": "Denton Park Medical Group", "coordinates": [-1.6987099647521973, 54.99311065673828]}, {"name": "Fakenham Medical Practice", "coordinates": [0.8676075339317321, 52.83932876586913]}, {"name": "Whitley Road Medical Centre", "coordinates": [-2.2226853370666504, 53.49493408203125]}, {"name": "Cleckheaton Group Practice", "coordinates": [-1.7106055021286013, 53.72405624389648]}, {"name": "Eastview Surgery", "coordinates": [-3.0236799716949463, 53.4810676574707]}, {"name": "High Street Surgery", "coordinates": [1.7551214694976809, 52.486621856689446]}, {"name": "Brompton Medical Centre", "coordinates": [-0.1898523122072219, 51.48943710327149]}, {"name": "Kingsthorpe Medical Centre", "coordinates": [-0.8921728730201721, 52.25796508789063]}, {"name": "Westgate Surgery", "coordinates": [1.338313102722168, 51.3831443786621]}, {"name": "Blackheath Med Ctr", "coordinates": [-3.104681968688965, 53.412227630615234]}, {"name": "St. Laurence's Medical Centre", "coordinates": [-2.882270336151123, 53.47516632080078]}, {"name": "Townside Surgery", "coordinates": [-2.2989652156829834, 53.59031295776367]}, {"name": "Deben Road Surgery ", "coordinates": [1.131022572517395, 52.071903228759766]}, {"name": "Ash Trees Surgery", "coordinates": [-2.768887042999268, 54.129444122314446]}, {"name": "Hove Medical Centre", "coordinates": [-0.1953754872083663, 50.84502410888672]}, {"name": "Sangam Surgery", "coordinates": [0.055285207927227, 51.554080963134766]}, {"name": "Horizon Healthcare", "coordinates": [-1.1018058061599731, 52.62236022949219]}, {"name": "Peverell Park Surgery", "coordinates": [-4.146946430206299, 50.39300155639648]}, {"name": "Ossett Surgery", "coordinates": [-1.5831010341644287, 53.68146896362305]}, {"name": "Minehead Medical Centre", "coordinates": [-3.476863145828247, 51.20437240600586]}, {"name": "Frankley Health Centre", "coordinates": [-2.0166394710540767, 52.40488052368164]}, {"name": "Benim Medical Centre", "coordinates": [-2.947789192199707, 53.41939926147461]}, {"name": "Wells City Practice", "coordinates": [-2.655308961868286, 51.20341491699219]}, {"name": "Galleries Medical Practice", "coordinates": [-1.5312261581420898, 54.89881896972656]}, {"name": "Mark Street Surgery", "coordinates": [-2.1446244716644287, 53.62423324584961]}, {"name": "DMC Pentagon", "coordinates": [0.5263029932975769, 51.38285446166992]}, {"name": "High Street Surgery", "coordinates": [-2.031759262084961, 52.660682678222656]}, {"name": "Beech Tree Medical Centre", "coordinates": [-1.6213977336883545, 53.79708480834961]}, {"name": "Kirkby Health Centre", "coordinates": [-1.2445694208145142, 53.10033416748047]}, {"name": "Warders Medical Centre", "coordinates": [0.2792267203330993, 51.197410583496094]}, {"name": "Highbridge Medical Centre", "coordinates": [-2.979093551635742, 51.2273826599121]}, {"name": "St Keverne Health  Centre", "coordinates": [-5.091184616088867, 50.04845428466797]}, {"name": "AINSDALE MEDICAL CENTRE", "coordinates": [-3.0387024879455566, 53.60241317749024]}, {"name": "Omnia Practice", "coordinates": [-1.8390671014785769, 52.475711822509766]}, {"name": "Sett Valley Medical Centre", "coordinates": [-1.9980673789978027, 53.36759567260742]}, {"name": "Wearside Medical Practice", "coordinates": [-1.4103158712387085, 54.9041748046875]}, {"name": "The Medical Centre", "coordinates": [-1.9436973333358765, 52.281394958496094]}, {"name": "Keynell Covert Surgery", "coordinates": [-1.911842703819275, 52.40844345092773]}, {"name": "Open Door Surgery", "coordinates": [-0.1555926203727722, 51.443164825439446]}, {"name": "Cromer Group Practice", "coordinates": [1.3079031705856323, 52.92445373535156]}, {"name": "Burnett Edgar Medical Centre", "coordinates": [-3.2549090385437007, 54.10714721679688]}, {"name": "Central Medical Centre", "coordinates": [-0.2459626644849777, 52.58700180053711]}, {"name": "Keele Practice", "coordinates": [-2.2736990451812744, 53.00307846069336]}, {"name": "West Oak Surgery", "coordinates": [-1.107630968093872, 52.98161697387695]}, {"name": "The Woodberry Practice", "coordinates": [-0.1003705263137817, 51.62725067138672]}, {"name": "Leven & Beeford Medical Practice", "coordinates": [-0.312847763299942, 53.89091491699219]}, {"name": "Park Street Surgery", "coordinates": [-2.986860036849976, 53.450294494628906]}, {"name": "The Acton Health Centre", "coordinates": [-0.2701841592788696, 51.506214141845696]}, {"name": "Dr M K Khan & Parnters", "coordinates": [0.5481817126274108, 51.57073211669922]}, {"name": "Kings Medical Centre", "coordinates": [0.04294035583734512, 51.62622833251953]}, {"name": "Northwood Medical Centre", "coordinates": [-1.932956337928772, 52.415489196777344]}, {"name": "Beehive surgery", "coordinates": [-2.419157028198242, 53.56416702270508]}, {"name": "Portishead Medical Group", "coordinates": [-2.767300128936768, 51.48281097412109]}, {"name": "Park Crescent Surgery", "coordinates": [-0.129407986998558, 50.83258056640625]}, {"name": "Grange St Surgery -Training Practice", "coordinates": [-0.3358637988567352, 51.75729751586913]}, {"name": "DR H NAY LIN", "coordinates": [-0.3152060508728027, 51.50994491577149]}, {"name": "Stuart House Surgery", "coordinates": [-0.033514805138111115, 52.9759178161621]}, {"name": "Herne Hill Group Practice", "coordinates": [-0.09924199432134627, 51.45562744140625]}, {"name": "The Shrubberies Medical centre", "coordinates": [0.024808270856738087, 51.59442901611328]}, {"name": "The Arrow Surgery, Alcester", "coordinates": [-1.8613673448562624, 52.21854782104492]}, {"name": "Highley Medical Centre", "coordinates": [-2.3929665088653564, 52.456153869628906]}, {"name": "Ar-Razi Medical Centre", "coordinates": [-1.1011979579925537, 52.62390899658203]}, {"name": "Bodey Medical Centre", "coordinates": [-2.2147836685180664, 53.44063949584961]}, {"name": "Belford Medical Practice", "coordinates": [-1.8260886669158936, 55.5959587097168]}, {"name": "Herschel Medical Centre", "coordinates": [-0.5924440026283264, 51.5063705444336]}, {"name": "Heron GP Practice", "coordinates": [-1.108781099319458, 52.6411361694336]}, {"name": "Mayfield Surgery l- Weston Favell Health Centre", "coordinates": [-0.8348982334136962, 52.258087158203125]}, {"name": "Denham Medical Centre", "coordinates": [-0.5022421479225158, 51.584564208984375]}, {"name": "Favell Plus Surgery", "coordinates": [-0.8348982334136962, 52.258087158203125]}, {"name": "Friar Gate Surgery", "coordinates": [-1.4856094121932983, 52.92480850219727]}, {"name": "James Wigg Practice", "coordinates": [-0.139940395951271, 51.54640579223633]}, {"name": "Westwood Clinic", "coordinates": [-0.2690392136573791, 52.59139633178711]}, {"name": "Putneymead Group Medical Practice", "coordinates": [-0.220001220703125, 51.46167755126953]}, {"name": "Trentham Mews Medical Centre", "coordinates": [-2.1898837089538574, 52.97043991088867]}, {"name": "Penny's Hill Practice", "coordinates": [-1.8944853544235227, 50.80179214477539]}, {"name": "The Surgery Egerton/Dunscar", "coordinates": [-2.426368236541748, 53.61759185791016]}, {"name": "Bloomsbury Health Centre Practice", "coordinates": [-1.8766037225723269, 52.49374771118164]}, {"name": "Highcroft Surgery", "coordinates": [-1.12880539894104, 53.00411224365234]}, {"name": "Woodhouse Health Centre", "coordinates": [-1.3720241785049438, 53.3576545715332]}, {"name": "Chapelgreen Practice", "coordinates": [-1.4790265560150146, 53.45915603637695]}, {"name": "The Adderlane Surgery", "coordinates": [-1.845729231834412, 54.96260833740234]}, {"name": "Hingham Surgery", "coordinates": [0.9874446392059326, 52.58145904541016]}, {"name": "Ashburnham Road Surgery", "coordinates": [-0.4781772196292877, 52.136009216308594]}, {"name": "Unity Health Princes Risborough", "coordinates": [-0.8377356529235839, 51.72380447387695]}, {"name": "City Health Centre", "coordinates": [-1.9581873416900637, 52.4766960144043]}, {"name": "High Road Family Doctors", "coordinates": [0.5628215074539183, 51.54928588867188]}, {"name": "Albion Street Surgery", "coordinates": [-0.1339511424303054, 50.82762908935546]}, {"name": "Lees Road Surgery", "coordinates": [-2.0748658180236816, 53.540283203125]}, {"name": "Cornishway Group Practice", "coordinates": [-2.265002489089966, 53.379928588867195]}, {"name": "The Limes Medical Centre", "coordinates": [-1.9746620655059812, 52.580657958984375]}, {"name": "THE DOW SURGERY", "coordinates": [-1.942432522773743, 52.30741500854492]}, {"name": "Oakwood Surgery", "coordinates": [-1.8586300611495967, 52.44456100463867]}, {"name": "DR White & Partners", "coordinates": [-1.7252144813537598, 52.76173782348633]}, {"name": "Regency Surgery", "coordinates": [-0.1361505836248397, 50.82196044921875]}, {"name": "Dr Owen & Partners", "coordinates": [-2.2292609214782715, 53.36988067626953]}, {"name": "Pershore Medical Practice", "coordinates": [-2.077760696411133, 52.11404800415039]}, {"name": "Oxgate Gardens Surgery", "coordinates": [-0.227777287364006, 51.56447982788086]}, {"name": "Gables Surgery", "coordinates": [0.1178772374987602, 51.54570007324219]}, {"name": "Pembroke Surgery", "coordinates": [-0.9517695307731628, 51.44873428344727]}, {"name": "Penrose Surgery", "coordinates": [-0.09777496755123137, 51.48744583129882]}, {"name": "Tudor Medical Centre", "coordinates": [-2.1025984287261963, 52.59365081787109]}, {"name": "Burn Brae Medical Group", "coordinates": [-2.095787286758423, 54.97036743164063]}, {"name": "University Health Centre", "coordinates": [-1.775532364845276, 53.64384078979492]}, {"name": "Peelhouse Medical Plaza", "coordinates": [-2.7225451469421387, 53.37210464477539]}, {"name": "PLEASE REFER TO THE PRACTICE WEB SITE FOR CURRENT INFORMATION", "coordinates": [-1.5310518741607666, 53.31631088256836]}, {"name": "Danson Family Practice - P85018", "coordinates": [-2.1305215358734126, 53.537296295166016]}, {"name": "New Islington Medical Practice", "coordinates": [-2.219457626342773, 53.48290252685546]}, {"name": "Woodhouse Medical Practice", "coordinates": [-1.5475239753723145, 53.81262969970703]}, {"name": "Hagley Surgery", "coordinates": [-2.1440885066986084, 52.4207878112793]}, {"name": "Idle Medical Centre", "coordinates": [-1.7341315746307373, 53.8361701965332]}, {"name": "Harrow Road Health Centre", "coordinates": [-0.1909876763820648, 51.520065307617195]}, {"name": "The Heavitree Practice", "coordinates": [-3.505528926849365, 50.72320938110352]}, {"name": "Crown Medical Practice", "coordinates": [-1.6951136589050293, 52.63682556152344]}, {"name": "Old School Surgery Inc Alfriston & East Dean Surgeries", "coordinates": [0.1007088497281074, 50.77206802368164]}, {"name": "Beechdale Health Centre", "coordinates": [-2.007324695587158, 52.60087203979492]}, {"name": "Hawthorn Drive ", "coordinates": [1.1219738721847534, 52.04639434814453]}, {"name": "St Johns Wood Medical Practice", "coordinates": [-0.1754465997219085, 51.53347396850586]}, {"name": "Dr R G Mitchell North Ferriby Surgery", "coordinates": [-0.5035657286643981, 53.720748901367195]}, {"name": "Allen Street Clinic", "coordinates": [-1.982427835464477, 52.983829498291016]}, {"name": "Fosse Medical Centre", "coordinates": [-1.1521384716033936, 52.6367073059082]}, {"name": "Spa Medical Centre", "coordinates": [-1.5252741575241089, 52.28450012207031]}, {"name": "Parkfield Medical Centre", "coordinates": [-0.1795731484889984, 51.69512939453125]}, {"name": "The Peartree Practice", "coordinates": [-1.3393265008926392, 50.90032577514648]}, {"name": "The Whickham Practice", "coordinates": [-1.6772111654281616, 54.94538497924805]}, {"name": "Wootton Vale Healthy Living Centre", "coordinates": [-0.5279363393783569, 52.09368896484375]}, {"name": "Crookhorn Surgery", "coordinates": [-1.0274420976638794, 50.862651824951165]}, {"name": "Newham Vicarage Practice", "coordinates": [0.010037194937467577, 51.541412353515625]}, {"name": "Dr A Khan & Dr K Muneer", "coordinates": [-1.5264937877655027, 53.7798957824707]}, {"name": "Dr O'Toole and Partners", "coordinates": [-0.5266262888908386, 51.88322830200195]}, {"name": "Parkbury House", "coordinates": [-0.3340724110603332, 51.75675964355469]}, {"name": "The Mount Group Practice", "coordinates": [-1.1223313808441162, 53.52589797973633]}, {"name": "The Marine & Oakridge Partnership", "coordinates": [-1.8065180778503416, 50.72283935546875]}, {"name": "Sherbourne Medical Centre", "coordinates": [-1.5326036214828491, 52.29289245605469]}, {"name": "Regent House Surgery", "coordinates": [-2.6353561878204346, 53.65032958984375]}, {"name": "Firstcare Practice", "coordinates": [-0.361669898033142, 51.47085571289063]}, {"name": "ELLIOTT STREET SURGERY", "coordinates": [-2.4693026542663574, 53.51416397094727]}, {"name": "Dove River Practice", "coordinates": [-1.761268973350525, 52.88643646240234]}, {"name": "ottershaw surgery", "coordinates": [-0.5259902477264404, 51.3619384765625]}, {"name": "Park House Medical Centre", "coordinates": [-2.8052806854248047, 53.426712036132805]}, {"name": "Urban Village Medical Practice", "coordinates": [-2.2232310771942134, 53.484085083007805]}, {"name": "Laurbel Surgery", "coordinates": [-0.2498986274003982, 53.7945671081543]}, {"name": "STAFFA HEALTH", "coordinates": [-1.3388099670410156, 53.146217346191406]}, {"name": "Highgrove Surgery", "coordinates": [0.09874144941568375, 51.5385627746582]}, {"name": "The Bush Doctors", "coordinates": [-0.2188190519809722, 51.50386428833008]}, {"name": "DRs PINTO, RIGBY & WAKIL", "coordinates": [-2.0891280174255367, 52.51027297973633]}, {"name": "Silverdale Family Practice", "coordinates": [-1.4100714921951294, 54.800247192382805]}, {"name": "Homewell Practice", "coordinates": [-0.9780053496360778, 50.85106658935546]}, {"name": "Dr Vije Rajput's Practice", "coordinates": [-1.6512162685394287, 52.617671966552734]}, {"name": "Spring Street Surgery", "coordinates": [-0.2522923350334167, 51.350379943847656]}, {"name": "BRADFORD STUDENT HEALTH SERVICE", "coordinates": [-1.767339825630188, 53.78570938110352]}, {"name": "The Lakes Medical Practice", "coordinates": [-2.742561817169189, 54.65612030029297]}, {"name": "New Street Surgery", "coordinates": [-2.01275372505188, 52.53692626953125]}, {"name": "THE SEVEN DIALS MEDICAL CENTRE", "coordinates": [-0.1477287858724594, 50.829681396484375]}, {"name": "The Caritas GP Partnership", "coordinates": [-2.134584188461304, 53.39593124389648]}, {"name": "Sherard Road Medical Centre", "coordinates": [0.04945078864693642, 51.45470428466797]}, {"name": "Tile House Partnership", "coordinates": [0.3077822029590606, 51.62255096435546]}, {"name": "Cranleigh Medical Practice", "coordinates": [-0.4870481789112091, 51.1406135559082]}, {"name": "Westbourne Medical Centre", "coordinates": [-1.90341591835022, 50.72351837158203]}, {"name": "Springmead Surgery", "coordinates": [-2.9679524898529053, 50.86957550048828]}, {"name": "William Fisher Medical Centre", "coordinates": [0.826754093170166, 51.66282272338867]}, {"name": "St Saviour's Surgery", "coordinates": [-2.3084733486175537, 52.13032913208008]}, {"name": "NEWBRIDGE SURGERY", "coordinates": [-2.1553142070770264, 52.59366607666016]}, {"name": "Stonecroft Medical Centre", "coordinates": [-1.4253005981445312, 53.3455467224121]}, {"name": "Merepark Medical Centre", "coordinates": [-2.300732374191284, 53.09328842163086]}, {"name": "The Woodfield Road Surgery", "coordinates": [-0.1975709795951843, 51.52272033691406]}, {"name": "Begg Practice", "coordinates": [-0.1794015765190124, 51.45996856689453]}, {"name": "Middlestown Medical Centre ", "coordinates": [-1.600546956062317, 53.65054702758789]}, {"name": "The Mandeville Practice", "coordinates": [-0.8210991024971008, 51.80231475830078]}, {"name": "Prospect Surgery", "coordinates": [-1.5831010341644287, 53.68146896362305]}, {"name": "Dr Koneru & Partners", "coordinates": [0.056376181542873376, 51.51557159423828]}, {"name": "Burnham  Medical Centre", "coordinates": [-2.9929299354553223, 51.23812103271485]}, {"name": "Moat House Surgery", "coordinates": [-0.08436491340398787, 52.40091323852539]}, {"name": "Chobham & West End Medical Practice", "coordinates": [-0.6025017499923706, 51.34981155395508]}, {"name": "Kirkoswald Surgery", "coordinates": [-2.692561388015747, 54.763774871826165]}, {"name": "Redhouse Medical Centre", "coordinates": [-1.4240480661392212, 54.92546081542969]}, {"name": "Colchester Medical Practice", "coordinates": [0.9093390107154846, 51.8900260925293]}, {"name": "The Chipping Surgery", "coordinates": [-2.3540585041046143, 51.635860443115234]}, {"name": "Lower Ince Surgery", "coordinates": [-2.614570617675781, 53.53492736816406]}, {"name": "Park Medical Centre", "coordinates": [-2.020498514175415, 53.10725784301758]}, {"name": "The Reddish Family Practice", "coordinates": [-2.156949996948242, 53.44590759277344]}, {"name": "Lilliput Surgery", "coordinates": [-1.95393180847168, 50.71174240112305]}, {"name": "Cornerstone Family Practice", "coordinates": [-2.195082187652588, 53.47442626953125]}, {"name": "Charlbury Medical Centre", "coordinates": [-1.4821789264678955, 51.87417602539063]}, {"name": "Pringle Street Surgery", "coordinates": [-2.4675788879394527, 53.74204254150391]}, {"name": "Lambourn Surgery", "coordinates": [-1.5258307456970217, 51.50404739379882]}, {"name": "The Bridges Medical Practice", "coordinates": [-2.456020832061768, 50.61422348022461]}, {"name": "Darlaston Health Centre", "coordinates": [-2.03630805015564, 52.5661735534668]}, {"name": "Rosmellyn Surgery", "coordinates": [-5.545074939727783, 50.12241363525391]}, {"name": "Parkview Practice", "coordinates": [-0.2316533625125885, 51.51066589355469]}, {"name": "The Practice Old Hill", "coordinates": [-2.0655291080474854, 52.47434616088867]}, {"name": "Moss Valley Medical Practice", "coordinates": [-1.3552439212799072, 53.30765914916992]}, {"name": "Angel Lane Surgery", "coordinates": [0.3625597953796386, 51.8719596862793]}, {"name": "High Street Practice", "coordinates": [-0.4724319577217102, 51.51190185546875]}, {"name": "Sternhall Lane Surgery", "coordinates": [-0.06742123514413834, 51.46677017211913]}, {"name": "Shrewsbury Road Surgery", "coordinates": [0.04329974949359894, 51.54092788696289]}, {"name": "Sellindge Surgery", "coordinates": [1.0027666091918943, 51.10353469848633]}, {"name": "New Surgery", "coordinates": [-0.6082351207733154, 51.71327209472656]}, {"name": "Cerne Abbas Surgery", "coordinates": [-2.474310874938965, 50.80925750732422]}, {"name": "Uxendon Crescent Surgery", "coordinates": [-0.2927945554256439, 51.57206344604492]}, {"name": "Apsley  BRANCH Surgery", "coordinates": [-2.186992883682251, 53.03538131713867]}, {"name": "Parkside Surgery", "coordinates": [-1.392133355140686, 53.09800720214844]}, {"name": "Brownhill Surgery ", "coordinates": [-2.479313611984253, 53.7752799987793]}, {"name": "Birtle View Medical Practice", "coordinates": [-2.22786545753479, 53.595027923583984]}, {"name": "Woodley Village Surgery", "coordinates": [-2.0996460914611816, 53.4262924194336]}, {"name": "Old Town Surgery", "coordinates": [-1.7963409423828125, 51.55043411254882]}, {"name": "Elmswood Surgery", "coordinates": [-1.1415779590606687, 52.983753204345696]}, {"name": "The Dovecot Surgery", "coordinates": [-1.3189703226089478, 54.561626434326165]}, {"name": "Haddenham Medical Centre", "coordinates": [-0.9217684864997864, 51.777809143066406]}, {"name": "Farnham Park Health Group", "coordinates": [-0.78436279296875, 51.22076034545898]}, {"name": "The Allan Practice", "coordinates": [-0.5610015988349915, 51.60698699951172]}, {"name": "Fell Cottage Surgery", "coordinates": [-1.5941832065582275, 54.93841171264648]}, {"name": "THE BALDOCK SURGERY", "coordinates": [-0.1835739761590957, 51.98528289794922]}, {"name": "Dr Y Loomba", "coordinates": [-2.4322757720947266, 53.57735061645508]}, {"name": "Maple Access Practice", "coordinates": [-0.8910703063011169, 52.236961364746094]}, {"name": "The Surgery", "coordinates": [-1.5268771648406982, 54.136451721191406]}, {"name": "Hollyhurst Medical Centre", "coordinates": [-1.7235870361328125, 54.955177307128906]}, {"name": "Mount Chambers Medical Practice", "coordinates": [0.5527089834213256, 51.87980270385742]}, {"name": "The Heron Medical Practice", "coordinates": [1.1211296319961548, 51.3713264465332]}, {"name": "Dr Nabi", "coordinates": [-0.6321419477462769, 51.51885223388672]}, {"name": "Hampton Medical Centre", "coordinates": [4.31418038715492e-06, 51.56650161743164]}, {"name": "QUINTON PRACTICE", "coordinates": [-2.017475843429565, 52.65712738037109]}, {"name": "Islip Manor Medical Centre", "coordinates": [-0.3730013668537139, 51.54731369018555]}, {"name": "The Langton Medical Group (Lichfield)", "coordinates": [-1.837192177772522, 52.69650650024414]}, {"name": "LIME GROVE MEDICAL CENTRE", "coordinates": [-1.552910089492798, 53.13903427124024]}, {"name": "Kingsway Surgery", "coordinates": [-1.1764010190963743, 52.6060791015625]}, {"name": "New Pond Row Surgery", "coordinates": [-0.3222782909870147, 50.82491302490234]}, {"name": "Clee Medical Centre", "coordinates": [-0.04141829907894135, 53.56622314453125]}, {"name": "Garston Family Health Centre", "coordinates": [-2.896815776824951, 53.35391616821289]}, {"name": "Dr Bouch & Partners", "coordinates": [1.7151918411254885, 52.47806930541992]}, {"name": "Boundary Court Surgery", "coordinates": [-0.060248926281929016, 51.62383270263672]}, {"name": "church view Medical Centre", "coordinates": [-2.9603147506713867, 50.93562698364258]}, {"name": "The Killingholme Surgery", "coordinates": [-0.2603195309638977, 53.62990951538086]}, {"name": "The Park Surgery", "coordinates": [-1.97420346736908, 51.7138786315918]}, {"name": "Mapesbury Medical Group", "coordinates": [-0.2094586342573165, 51.55149841308594]}, {"name": "Scott Arms Medical Centre", "coordinates": [-1.9250590801239011, 52.547122955322266]}, {"name": "Long Lane Surgery", "coordinates": [-1.357680082321167, 52.721866607666016]}, {"name": "Berry Lane Medical Centre", "coordinates": [-2.6027088165283203, 53.831520080566406]}, {"name": "Sutterton Surgery", "coordinates": [-0.09760134667158128, 52.90171813964844]}, {"name": "Priory Road Surgery", "coordinates": [0.5892673134803772, 50.8608283996582]}, {"name": "Druid Group", "coordinates": [-1.9419941902160645, 52.486282348632805]}, {"name": "Horizon Healthcare", "coordinates": [-1.47865092754364, 52.917137145996094]}, {"name": "Fearnhead Cross Medical Centre", "coordinates": [-2.559091567993164, 53.411075592041016]}, {"name": "The Pinn Medical Centre", "coordinates": [-0.3822390735149383, 51.595073699951165]}, {"name": "Charlotte Street Surgery", "coordinates": [-2.4277563095092773, 53.590435028076165]}, {"name": "Mossley Fields Surgery", "coordinates": [-2.0162501335144043, 52.62133026123047]}, {"name": "The Surgery ", "coordinates": [-2.4696695804595947, 53.51461410522461]}, {"name": "Holmes Chapel Health Centre", "coordinates": [-2.3558361530303955, 53.20021438598633]}, {"name": "Hawkley Brook Medical Practice", "coordinates": [-2.643757104873657, 53.529396057128906]}, {"name": "The Royal Crescent Surgery", "coordinates": [-2.0560379028320317, 51.91058349609375]}, {"name": "'The Practice @188'", "coordinates": [-0.2046547830104827, 51.57642364501953]}, {"name": "Gresty Brook Medical Centre", "coordinates": [-2.453842878341675, 53.10234832763672]}, {"name": "Bath Lodge Practice", "coordinates": [-1.3545877933502195, 50.915565490722656]}, {"name": "Haigh Hall", "coordinates": [-1.7152321338653564, 53.83112335205078]}, {"name": "Ordsall Health Surgery", "coordinates": [-2.280956029891968, 53.47398376464844]}, {"name": "Kensington Road Surgery", "coordinates": [-1.5323867797851565, 52.40257263183594]}, {"name": "Horn Lane Surgery", "coordinates": [-0.2686390876770019, 51.514663696289055]}, {"name": "Benhill and Belmont GP Centre", "coordinates": [-0.1902753561735153, 51.36660385131836]}, {"name": "Dr Tun & Partners", "coordinates": [-2.583556652069092, 53.5321044921875]}, {"name": "Health and Beyond", "coordinates": [-2.1150565147399902, 52.57636260986328]}, {"name": "Queenstree Practice", "coordinates": [-1.2947828769683838, 54.60829162597656]}, {"name": "Kingsteignton Medical Practice", "coordinates": [-3.597381830215454, 50.54898834228516]}, {"name": "Dr Sivakumar and Dr Gude", "coordinates": [-2.4555795192718506, 53.50010681152344]}, {"name": "Pangbourne Medical Practice", "coordinates": [-1.0858911275863647, 51.4860954284668]}, {"name": "Walkley House & Stannington M.C", "coordinates": [-1.502233862876892, 53.392253875732415]}, {"name": "Dordon & Polesworth Group Practice", "coordinates": [-1.6141444444656372, 52.6040267944336]}, {"name": "Saddleworth Medical Practice", "coordinates": [-2.0049424171447754, 53.548336029052734]}, {"name": "MYTHE MEDICAL PRACTICE", "coordinates": [-2.1534252166748047, 51.99228286743164]}, {"name": "Bursledon Surgery", "coordinates": [-1.3167860507965088, 50.889694213867195]}, {"name": "Maybury Surgery", "coordinates": [-0.5387500524520874, 51.3256721496582]}, {"name": "Stoke Surgery", "coordinates": [-4.1667656898498535, 50.379009246826165]}, {"name": "Kenwood  Medical Centre", "coordinates": [0.07202039659023285, 51.58141326904297]}, {"name": "Carnarvon Medical Centre", "coordinates": [0.7018848061561584, 51.54498672485352]}, {"name": "West End Surgery", "coordinates": [-0.3977899253368377, 51.53427505493164]}, {"name": "The Birches Medical Centre", "coordinates": [1.2360167503356934, 52.06219100952149]}, {"name": "Slaidburn Health Centre", "coordinates": [-2.396624803543091, 53.956069946289055]}, {"name": "Northville Family Practice", "coordinates": [-2.5259976387023926, 51.49405288696289]}, {"name": "Elgar House", "coordinates": [-1.942357897758484, 52.30837631225586]}, {"name": "Eden Medical Group", "coordinates": [-2.952078342437744, 54.89421081542969]}, {"name": "Sheffield Medical Centre", "coordinates": [-1.4604631662368774, 53.39085006713867]}, {"name": "Dr Jude's Practice - Riverside", "coordinates": [-2.943001508712769, 53.398880004882805]}, {"name": "Croft Shifa Health Centre", "coordinates": [-2.141231060028076, 53.62228012084961]}, {"name": "EAST COWES MEDICAL CENTRE", "coordinates": [-1.2861757278442385, 50.75746154785156]}, {"name": "Wellington House", "coordinates": [-1.6345460414886477, 53.71477890014648]}, {"name": "Bridge Surgery", "coordinates": [-1.6213252544403076, 52.79513549804688]}, {"name": "Bramcote Surgery", "coordinates": [-1.2449703216552734, 52.93560791015625]}, {"name": "The Gill Medical Practice", "coordinates": [-2.398369789123535, 53.5242919921875]}, {"name": "Sonning Common Health Centre", "coordinates": [-0.982099711894989, 51.51560592651367]}, {"name": "Five Valleys Medical Practice", "coordinates": [-2.2171797752380367, 51.74729919433594]}, {"name": "Redwood House Surgery", "coordinates": [-0.761997640132904, 51.51159286499024]}, {"name": "The Northwick Surgery", "coordinates": [-0.3264641761779785, 51.58100128173828]}, {"name": "Hughenden Valley Surgery", "coordinates": [-0.7510993480682373, 51.66126251220703]}, {"name": "Empingham Medical Centre", "coordinates": [-0.5937690734863281, 52.66772079467773]}, {"name": "Honiton Surgery", "coordinates": [-3.188029766082764, 50.79458236694336]}, {"name": "Primrose Medical Practice", "coordinates": [-2.8427927494049072, 53.419532775878906]}, {"name": "Rainbow Surgery", "coordinates": [0.1793746948242187, 52.482376098632805]}, {"name": "Broadway Health Centre Group Practide", "coordinates": [-1.924078345298767, 52.4827995300293]}, {"name": "Green Porch Medical Partnership", "coordinates": [0.7321869730949401, 51.34923553466797]}, {"name": "Brookside Health Centre", "coordinates": [-1.5242987871170044, 50.6814842224121]}, {"name": "The Palms Medical Centre", "coordinates": [0.08854633569717406, 51.57698440551758]}, {"name": "The Vale Surgery", "coordinates": [-0.1366454362869262, 51.4172477722168]}, {"name": "Willow Bank Surgery", "coordinates": [-2.1029143333435054, 52.978492736816406]}, {"name": "Central Surgery", "coordinates": [0.7018848061561584, 51.54498672485352]}, {"name": "The Burbage Surgery", "coordinates": [-1.3685315847396853, 52.48673248291016]}, {"name": "3/Springfield House Medical Practice", "coordinates": [-2.362004041671753, 53.480255126953125]}, {"name": "Stoneham Lane Surgery", "coordinates": [-1.378454327583313, 50.93930816650391]}, {"name": "Crown Street Surgery", "coordinates": [-0.2737852931022644, 51.50739288330078]}, {"name": "Sunderland GP Alliance Medical Practice - Galleries", "coordinates": [-1.5312261581420898, 54.89881896972656]}, {"name": "South Molton Medical Centre", "coordinates": [-3.832500457763672, 51.01828384399414]}, {"name": "Wawn Street Surgery", "coordinates": [-1.4266960620880127, 54.98723602294922]}, {"name": "Sheerwater Health Centre", "coordinates": [-0.5307284593582153, 51.33415985107422]}, {"name": "Ratby Surgery", "coordinates": [-1.2376898527145386, 52.643951416015625]}, {"name": "Foundry Healthcare Lewes", "coordinates": [0.012078115716576576, 50.87347030639648]}, {"name": "Holyhead Primary Healthcare Center", "coordinates": [-1.9482890367507932, 52.5057029724121]}, {"name": "Greenwich Peninsula", "coordinates": [0.012052682228386402, 51.49325942993164]}, {"name": "The Village Medical Centre", "coordinates": [-0.6474215984344482, 51.5129508972168]}, {"name": "The Friendly Family Surgery", "coordinates": [-1.2886497974395752, 53.230274200439446]}, {"name": "East Wing Surgery", "coordinates": [-1.4919613599777222, 54.98065948486328]}, {"name": "Marsh Surgery", "coordinates": [-1.8040090799331665, 53.6517448425293]}, {"name": "Penketh Health Centre", "coordinates": [-2.6560182571411133, 53.386566162109375]}, {"name": "Wombwell Medical Centre", "coordinates": [-1.3989052772521973, 53.52190017700195]}, {"name": "Solent View Medical Practice", "coordinates": [-1.2018308639526367, 50.802734375]}, {"name": "Townhill Community Surgery", "coordinates": [-1.3522834777832031, 50.93297958374024]}, {"name": "Redlam Surgery", "coordinates": [-2.5038220882415767, 53.74258804321289]}, {"name": "Northgate Village Surgery", "coordinates": [-2.892957925796509, 53.195098876953125]}, {"name": "St Johns Medical Practice ", "coordinates": [0.1952630877494812, 51.28500747680664]}, {"name": "Limefield Surgery", "coordinates": [-2.5038790702819824, 53.74988555908203]}, {"name": "Millgate Healthcare Partnership ", "coordinates": [-2.1184487342834477, 53.455604553222656]}, {"name": "Grove Medical Practice", "coordinates": [-0.07012751698493958, 52.32425308227539]}, {"name": "Stoneleigh Surgery", "coordinates": [-2.7706894874572754, 54.22727966308594]}, {"name": "Dr SC & AK Thakur", "coordinates": [-2.838778257369995, 53.34091567993164]}, {"name": "Townfield Doctors Surgery", "coordinates": [-0.4112060964107513, 51.51584243774414]}, {"name": "Meadows Surgery", "coordinates": [-0.1517510265111923, 50.962135314941406]}, {"name": "Hollington Surgery", "coordinates": [0.8725013732910156, 51.15142059326172]}, {"name": "Dartmouth Medical Centre", "coordinates": [-2.0053949356079106, 52.52043914794922]}, {"name": "Albert Road Surgery", "coordinates": [0.033841222524642944, 51.501495361328125]}, {"name": "Staploe Medical Centre", "coordinates": [0.3419643640518188, 52.33518981933594]}, {"name": "Heath Lane Surgery", "coordinates": [-1.3229192495346067, 52.575210571289055]}, {"name": "Dean Cross Surgery", "coordinates": [-4.09534215927124, 50.35894775390625]}, {"name": "Hounslow Medical Centre", "coordinates": [-0.3768255710601806, 51.46939468383789]}, {"name": "The Albion Mount Medical Practice", "coordinates": [-1.6336946487426758, 53.69590759277344]}, {"name": "Drs Nash & Uglow", "coordinates": [-4.67677640914917, 50.6240348815918]}, {"name": "Ashingdon Medical centre", "coordinates": [0.6902330517768859, 51.60074615478516]}, {"name": "Westfield Road Surgery", "coordinates": [-0.7277689576148986, 51.99333572387695]}, {"name": "Cheylesmore Surgery", "coordinates": [-1.5039095878601074, 52.39132690429688]}, {"name": "Dunrobin Medical Centre", "coordinates": [-2.1312191486358643, 52.9811897277832]}, {"name": "Elmham Surgery", "coordinates": [0.9430136680603028, 52.7522850036621]}, {"name": "Tettenhall Road Medical Practice", "coordinates": [-2.1536264419555664, 52.59228515625]}, {"name": "The Old School Surgery", "coordinates": [-1.2827670574188232, 52.547187805175774]}, {"name": "Beeches Medical Practice", "coordinates": [-2.7723135948181152, 52.673824310302734]}, {"name": "Borough Road & Nunthorpe Medical Group", "coordinates": [-1.2271941900253296, 54.57196807861328]}, {"name": "Arlington Road Medical Practice", "coordinates": [0.2775726318359375, 50.7681884765625]}, {"name": "Dr Fisher & Partners", "coordinates": [-0.754054307937622, 51.32443618774414]}, {"name": "The Surgery", "coordinates": [-2.605280876159668, 53.024864196777344]}, {"name": "Sedlescombe & Westfield Surgeries", "coordinates": [0.5347099304199218, 50.934131622314446]}, {"name": "Addington Road Surgery", "coordinates": [-0.0039555374532938, 51.36907958984375]}, {"name": "Odiham Health Centre", "coordinates": [-0.9410153031349182, 51.25454711914063]}, {"name": "Willenhall Primary Care Centre1", "coordinates": [-1.4599725008010864, 52.38769912719727]}, {"name": "Hilary Cottage Surgery", "coordinates": [-1.774014949798584, 51.70772933959961]}, {"name": "Dishley Grange Medical Practice", "coordinates": [-1.2404444217681885, 52.779193878173835]}, {"name": "MIDDLEWAY SURGERY", "coordinates": [-4.713204383850098, 50.35644912719727]}, {"name": "Tramways And Middlewood Medical Centres.", "coordinates": [-1.5030072927474976, 53.40203094482422]}, {"name": "Swan Lane Medical Centre", "coordinates": [-2.442376613616944, 53.56694793701172]}, {"name": "Reedyford Health Care", "coordinates": [-2.2188353538513184, 53.83804702758789]}, {"name": "Bridgewater Surgeries", "coordinates": [-0.4223752617835998, 51.65130615234375]}, {"name": "The Grove Medical Centre", "coordinates": [-0.010956015437841415, 51.57919692993164]}, {"name": "The Datchet Health Centre", "coordinates": [-0.5762996077537536, 51.482059478759766]}, {"name": "Portview Surgery", "coordinates": [-4.214038372039794, 50.40734100341797]}, {"name": "Quincy Rise Surgery", "coordinates": [-2.129535675048828, 52.46742630004882]}, {"name": "Ivy Court Surgery", "coordinates": [0.6902355551719666, 51.06803894042969]}, {"name": "Denton Village Surgery", "coordinates": [-0.7737146615982055, 52.213970184326165]}, {"name": "Glenlyn", "coordinates": [-0.3579423725605011, 51.39738082885742]}, {"name": "Eastwood Primary Care Centre", "coordinates": [-1.3077384233474731, 53.016067504882805]}, {"name": "North Shore Surgery", "coordinates": [-3.033488512039185, 53.84955978393555]}, {"name": "Steppingstones Medical Practice", "coordinates": [-2.0906736850738525, 52.509525299072266]}, {"name": "New Bank Health", "coordinates": [-2.204369306564331, 53.46012878417969]}, {"name": "Headcorn Surgery", "coordinates": [0.6236476898193359, 51.1684799194336]}, {"name": "St Quintin Health Centre", "coordinates": [-0.2203107625246048, 51.51919937133789]}, {"name": "Veor Surgery", "coordinates": [-5.299552917480469, 50.209976196289055]}, {"name": "Albany House Medical Centre", "coordinates": [-0.6953885555267334, 52.303497314453125]}, {"name": "Brook Square Surgery", "coordinates": [-0.4093125462532043, 54.281787872314446]}, {"name": "Bath Row Medical Practice", "coordinates": [-1.9084614515304563, 52.47262954711913]}, {"name": "The Fryern Surgery", "coordinates": [-1.3728573322296145, 50.98719787597656]}, {"name": "Timber Hill Health Centre", "coordinates": [1.2960515022277832, 52.62664031982422]}, {"name": "Archwood Medical Practice", "coordinates": [-2.0996460914611816, 53.4262924194336]}, {"name": "The Health Centre", "coordinates": [-2.2500438690185547, 54.975685119628906]}, {"name": "St Pauls Surgery", "coordinates": [-1.9885252714157104, 52.50078582763672]}, {"name": "Dr Perkins' Surgery", "coordinates": [-2.116929769515991, 53.543827056884766]}, {"name": "Askern Medical Practice", "coordinates": [-1.14935040473938, 53.6153564453125]}, {"name": "St Luke's Medical Centre", "coordinates": [-3.51762318611145, 50.39432144165039]}, {"name": "Twyford Surgery", "coordinates": [-1.3142260313034058, 51.01943206787109]}, {"name": "Core Care Family Practice", "coordinates": [-0.1087888330221176, 53.56781768798828]}, {"name": "Bennfield Surgery", "coordinates": [-1.2654588222503662, 52.371746063232415]}, {"name": "PRINCESS STREET GROUP PRACTICE", "coordinates": [-0.1019441038370132, 51.4956169128418]}, {"name": "Harden Health Centre", "coordinates": [-1.985943078994751, 52.60855484008789]}, {"name": "Gratton Surgery", "coordinates": [-1.335996389389038, 51.15409851074219]}, {"name": "Whitewater Health ", "coordinates": [-0.96295565366745, 51.286331176757805]}, {"name": "Eldon Road Surgery", "coordinates": [-0.9590506553649902, 51.45318984985352]}, {"name": "Dr Alden & Partners", "coordinates": [-0.08172585070133209, 51.01302337646485]}, {"name": "The Bradford Moor Practice", "coordinates": [-1.7218337059020996, 53.79783630371094]}, {"name": "The Parks Medical Practice", "coordinates": [0.4967475831508636, 51.43421173095703]}, {"name": "Lingwell Croft Surgery", "coordinates": [-1.5350341796875, 53.74997329711913]}, {"name": "Dr. Poolo's Surgery - Rush Green Medical Centre", "coordinates": [0.1759823858737945, 51.56071853637695]}, {"name": "Kingswinford Medical Practice", "coordinates": [-2.160309314727783, 52.4981689453125]}, {"name": "WEST VIEW SURGERY", "coordinates": [-2.502105951309204, 51.41192626953125]}, {"name": "HOUNSLOW Surgery", "coordinates": [-0.3566590845584869, 51.47126388549805]}, {"name": "The Hadleigh Practice", "coordinates": [-1.993511438369751, 50.76102066040039]}, {"name": "Shafton Lane Surgery", "coordinates": [-1.5635385513305664, 53.785598754882805]}, {"name": "The Grange Medical Centre", "coordinates": [-1.7015244960784912, 54.053653717041016]}, {"name": "King's College London NHS Health Centre", "coordinates": [-0.1162385940551757, 51.51161193847656]}, {"name": "The Summit Practice", "coordinates": [0.045373991131782525, 51.539588928222656]}, {"name": "Whitehill Surgery", "coordinates": [-0.818622350692749, 51.81939315795898]}, {"name": "Bramblehaies Surgery", "coordinates": [-3.3913469314575195, 50.859657287597656]}, {"name": "Avicenna Medical Practice", "coordinates": [-1.7218337059020996, 53.79783630371094]}, {"name": "St Leonard's Practice", "coordinates": [-3.5227177143096924, 50.72374725341797]}, {"name": "Arbroath House - IntraHealth", "coordinates": [-1.3314049243927002, 54.75799560546875]}, {"name": "THE OLD DAIRY HEALTH CENTRE", "coordinates": [-0.09465605020523073, 51.43682098388672]}, {"name": "Park Medical Practice", "coordinates": [-1.4326331615447998, 52.92878341674805]}, {"name": "Saltaire Medical Practice", "coordinates": [-1.7910169363021853, 53.83454895019531]}, {"name": "Probus Surgery", "coordinates": [-4.948529243469238, 50.290130615234375]}, {"name": "Dr Clarke & Partners", "coordinates": [-1.2796560525894165, 53.42230987548828]}, {"name": "Hillview Surgery", "coordinates": [-0.3183161616325378, 51.54053497314453]}, {"name": "Boyatt Wood Surgery", "coordinates": [-1.36000657081604, 50.97786712646485]}, {"name": "Riverside Medical Centre", "coordinates": [-1.3580031394958496, 53.727989196777344]}, {"name": "The Avenue Surgery", "coordinates": [-1.9641587734222408, 51.71346282958984]}, {"name": "Dr Sood and Partners", "coordinates": [-1.1285141706466677, 52.957866668701165]}, {"name": "Braithwaite Road Surgery", "coordinates": [-2.5749707221984863, 53.4774169921875]}, {"name": "Nottingham Trent University Student Health Centre", "coordinates": [-1.1553338766098022, 52.95891571044922]}, {"name": "West Hoe Surgery", "coordinates": [-4.149282932281494, 50.36471557617188]}, {"name": "Spinney Partnership", "coordinates": [-0.07774766534566878, 52.335330963134766]}, {"name": "Heatherbrook Surgery", "coordinates": [-1.1617693901062012, 52.675559997558594]}, {"name": "TOLLESBURY SURGERY", "coordinates": [0.8316225409507751, 51.75865936279297]}, {"name": "Woodseats Medical Centre", "coordinates": [-1.4802850484848022, 53.33990859985352]}, {"name": "Woodside Surgery", "coordinates": [-0.8867716193199157, 54.553909301757805]}, {"name": "The Downland Practice at Chieveley", "coordinates": [-1.3123877048492432, 51.46344375610352]}, {"name": "Mill Hill Surgery", "coordinates": [-0.2744311690330505, 51.50516891479492]}, {"name": "Swan Sugery", "coordinates": [0.7177280187606812, 52.2484245300293]}, {"name": "Dr C Farrar", "coordinates": [-1.6338958740234375, 52.7993278503418]}, {"name": "Rickleton Medical Centre", "coordinates": [-1.547480225563049, 54.880195617675774]}, {"name": "Selston Surgery", "coordinates": [-1.2998563051223757, 53.07019805908203]}, {"name": "The Manor Practice", "coordinates": [-1.8236026763916016, 52.55816268920898]}, {"name": "The Pickford Surgery", "coordinates": [0.1334271281957626, 51.46677780151367]}, {"name": "Somercotes Medical Centre", "coordinates": [-1.372588038444519, 53.08233642578125]}, {"name": "Burnley Medical Practice", "coordinates": [-0.2355116754770278, 51.542835235595696]}, {"name": "Imeary Street Surgery", "coordinates": [-1.4248478412628174, 54.98753356933594]}, {"name": "Brunton Park Health Centre", "coordinates": [-1.62709379196167, 55.02696990966797]}, {"name": "Colne Family Doctors", "coordinates": [-2.16605544090271, 53.85636901855469]}, {"name": "Ringmead Medical Practice - Great Hollands", "coordinates": [-0.7707120776176452, 51.39866256713867]}, {"name": "Putnoe Medical Centre", "coordinates": [-0.4382790625095367, 52.14794158935546]}, {"name": "BRACE STREET HEALTH CENTRE", "coordinates": [-1.9833112955093384, 52.57756805419922]}, {"name": "The Bucklebury Practice", "coordinates": [-1.1708462238311768, 51.425880432128906]}, {"name": "EARLE ROAD MEDICAL CENTRE", "coordinates": [-2.943001508712769, 53.398880004882805]}, {"name": "The Arthington Medical Centre", "coordinates": [-1.532892823219299, 53.77214813232422]}, {"name": "Longsight Medical Practice", "coordinates": [-2.2018723487854004, 53.45758819580078]}, {"name": "The Beaumont Practice", "coordinates": [-0.1249930635094642, 51.57144546508789]}, {"name": "Cantilupe Surgery", "coordinates": [-2.712247133255005, 52.055423736572266]}, {"name": "The Limes Surgery", "coordinates": [-0.010827073827385902, 51.75941467285156]}, {"name": "Crompton View Surgery", "coordinates": [-2.415210962295532, 53.59748840332031]}, {"name": "Kingfisher Practice", "coordinates": [-0.3596000075340271, 51.461124420166016]}, {"name": "The Wand Medical Centre", "coordinates": [-1.8886673450469968, 52.46419143676758]}, {"name": "Dr's Lasa, Soe & Gupta", "coordinates": [-1.2234150171279907, 54.70397186279297]}, {"name": "Feldon Practice", "coordinates": [-2.0282626152038574, 52.46731185913086]}, {"name": "Walsall Wood Health Centre", "coordinates": [-1.9277405738830569, 52.62962341308594]}, {"name": "maddock way surgery ", "coordinates": [-0.1030435338616371, 51.482666015625]}, {"name": "SKY BLUE MEDICAL GROUP - Green Lane Medical Centre", "coordinates": [-1.5275768041610718, 52.38224411010742]}, {"name": "THE RIDGEWAY SURGERY", "coordinates": [-0.3650870323181152, 51.58100509643555]}, {"name": "The Bosmere Medical Practice", "coordinates": [-0.9905670881271362, 50.85023498535156]}, {"name": "The North thoresby Practice", "coordinates": [-0.05673297867178917, 53.46499633789063]}, {"name": "THE YADAVA PRACTICE", "coordinates": [0.3332385122776031, 51.4768180847168]}, {"name": "Fernley Medical Centre", "coordinates": [-1.8645522594451904, 52.45160675048828]}, {"name": "Hannage Brook Medical Centre", "coordinates": [-1.5713546276092527, 53.07760620117188]}, {"name": "Birchdale Road Medical Centre", "coordinates": [0.03844083473086357, 51.546756744384766]}, {"name": "The Manor Practice", "coordinates": [-0.234996423125267, 50.83514404296875]}, {"name": "Bewdley Medical Centre", "coordinates": [-2.3167541027069087, 52.37657928466797]}, {"name": "The Haven Practice - We Are Open!", "coordinates": [-0.1426364928483963, 50.84277725219727]}, {"name": "Lancelot Medical Centre", "coordinates": [-0.2994851171970367, 51.55286407470703]}, {"name": "Middleton Health Centre", "coordinates": [-2.194708824157715, 53.560562133789055]}, {"name": "Staithe Surgery", "coordinates": [1.5175392627716064, 52.770034790039055]}, {"name": "Bethesda Medical Centre", "coordinates": [1.4148015975952148, 51.39027404785156]}, {"name": "Leacroft Medical Practice", "coordinates": [-0.1960146576166153, 51.126567840576165]}, {"name": "The Puzey Family Practice", "coordinates": [0.7059776782989502, 51.58209991455078]}, {"name": "Albion Medical Practice", "coordinates": [-2.08846116065979, 53.48960876464844]}, {"name": "HIGH ROAD SURGERY", "coordinates": [0.005030568223446608, 51.55349349975586]}, {"name": "Holes Lane Surgery", "coordinates": [-2.5450923442840576, 53.39983367919922]}, {"name": "Yealm Medical Centre", "coordinates": [-3.9977548122406006, 50.348575592041016]}, {"name": "ALASTAIR ROSS MEDICAL PRACTICE", "coordinates": [-2.3842644691467285, 53.58235931396485]}, {"name": "Howden Medical Centre", "coordinates": [-0.8693888187408447, 53.74417495727539]}, {"name": "Hackbridge Medical Centre", "coordinates": [-0.1565667390823364, 51.37784957885742]}, {"name": "Julia Engwell Health Centre", "coordinates": [0.1120953187346458, 51.53327941894531]}, {"name": "Linden Road Surgery", "coordinates": [-0.479203850030899, 52.14361953735352]}, {"name": "The Forest Practice", "coordinates": [0.02490874379873276, 51.55057907104492]}, {"name": "The Staunton Group Practice", "coordinates": [-0.1129117161035537, 51.599388122558594]}, {"name": "Chet Valley Medical Practice", "coordinates": [1.4739388227462769, 52.53459930419922]}, {"name": "Ealing Park Health Centre", "coordinates": [-0.3053526878356933, 51.49742126464844]}, {"name": "Quayside Medical Practice", "coordinates": [0.05113018676638603, 50.79327392578125]}, {"name": "Southcoates Medical Centre", "coordinates": [-0.306800901889801, 53.756542205810554]}, {"name": "The James O'Riordan Medical Centre", "coordinates": [-0.2126513570547103, 51.38520050048828]}, {"name": "Excel Primary Care", "coordinates": [-2.758886337280273, 53.538330078125]}, {"name": "Ash Surgery", "coordinates": [1.2788954973220823, 51.27988052368164]}, {"name": "Fountain Medical Centre", "coordinates": [-0.8043714761734008, 53.07284164428711]}, {"name": "Teams Medical Practice", "coordinates": [-1.624824047088623, 54.95503616333008]}, {"name": "HMC Feltham", "coordinates": [-0.4110713899135589, 51.44636917114258]}, {"name": "Southfield Way Surgery", "coordinates": [-2.018718242645264, 52.65839385986328]}, {"name": "Silsden Group Practice", "coordinates": [-1.944125771522522, 53.91182708740234]}, {"name": "BIRCHILLS HEALTH CENTRE", "coordinates": [-1.99539577960968, 52.59112548828125]}, {"name": "Fairfield Surgery - Burwash", "coordinates": [0.382794052362442, 50.99723052978516]}, {"name": "DR STEPHENSON AND PARTNERS", "coordinates": [-1.5248483419418335, 54.91341400146485]}, {"name": "Sydenham House Medical Centre", "coordinates": [0.880321979522705, 51.14633560180664]}, {"name": "Richmond Lock Surgery", "coordinates": [-0.3228828907012939, 51.464519500732415]}, {"name": "Foundations", "coordinates": [-1.2421663999557495, 54.57537078857422]}, {"name": "London Road Health Centre", "coordinates": [-0.4595763385295867, 52.12669372558594]}, {"name": "Alma Medical Centre", "coordinates": [-1.3176329135894775, 54.56949234008789]}, {"name": "Mexborough Health Centre", "coordinates": [-1.2797796726226809, 53.494239807128906]}, {"name": "CHAPEL STREET SURGERY", "coordinates": [-1.968577861785889, 52.62788009643555]}, {"name": "College Road Surgery", "coordinates": [-1.8652725219726565, 52.44218444824219]}, {"name": "COBRIDGE SURGERY", "coordinates": [-2.186992883682251, 53.03538131713867]}, {"name": "Washingborough Family Practice", "coordinates": [-0.4733366966247558, 53.22182846069336]}, {"name": "Oxford Drive Medical Centre", "coordinates": [-0.3929921388626098, 51.56774139404297]}, {"name": "The Lordship Lane Surgery", "coordinates": [-0.07320670783519746, 51.448368072509766]}, {"name": "Davenal House Surgery ", "coordinates": [-2.0554208755493164, 52.338970184326165]}, {"name": "Levenshulme Medical Practice", "coordinates": [-2.188509225845337, 53.44635772705078]}, {"name": "North Harbour Medical Group", "coordinates": [-1.0687671899795532, 50.843868255615234]}, {"name": "St Andrews Surgery", "coordinates": [0.0109977247193455, 50.8718147277832]}, {"name": "Petworth Surgery", "coordinates": [-0.6071210503578186, 50.98336410522461]}, {"name": "Ashby Turn Primary Care Partners", "coordinates": [-0.6541603207588195, 53.565967559814446]}, {"name": "Parkside Surgery", "coordinates": [-2.190828561782837, 53.45319366455078]}, {"name": "St Pauls Partners", "coordinates": [-1.9843816757202148, 52.512733459472656]}, {"name": "Harcourt Medical Centre", "coordinates": [-1.8007482290267944, 51.0674934387207]}, {"name": "Dr SIRISENA & PARTNERS", "coordinates": [-0.2602888941764831, 51.61611557006836]}, {"name": "The Portmill Surgery", "coordinates": [-0.2746976315975189, 51.94881439208984]}, {"name": "Dr Solway; Dr Whale & Dr Mallick", "coordinates": [1.1618475914001465, 52.057254791259766]}, {"name": "Red Suite", "coordinates": [0.5478005409240722, 51.38563537597656]}, {"name": "The Merrywood Practice", "coordinates": [-2.596274852752685, 51.428749084472656]}, {"name": "Prenton Medical Centre_Murugesh V", "coordinates": [-3.0609302520751958, 53.37106704711913]}, {"name": "The Pines Surgery", "coordinates": [-0.9024754762649536, 52.27268600463867]},