[{"name": "Digby Manor Residential Care Home", "coordinates": [-1.813997, 52.527463]}, {"name": "Doveridge Care Home", "coordinates": [-3.067758, 50.738826]}, {"name": "Dove Court", "coordinates": [-3.083783, 50.71169]}, {"name": "Blenheim House Care Home", "coordinates": [-2.146607, 51.379306]}, {"name": "The Chase", "coordinates": [-0.173728, 52.344577]}, {"name": "Eden Manor Care Home", "coordinates": [-2.96058, 54.883283]}, {"name": "Sherrell House", "coordinates": [0.082181, 51.610432]}, {"name": "Allesley Hall", "coordinates": [-1.561009, 52.418941]}, {"name": "Linden House", "coordinates": [-0.255603, 51.329762]}, {"name": "Lakeview Grange", "coordinates": [-0.767367, 50.826882]}, {"name": "West Eaton Nursing and Residential home", "coordinates": [-2.723641, 52.222469]}, {"name": "Deer Park Care Home", "coordinates": [-2.428821, 52.028794]}, {"name": "Kingsman House Care Home", "coordinates": [-1.885833, 50.724246]}, {"name": "Weavers Court Care Home", "coordinates": [-1.685012, 53.860063]}, {"name": "Oak View Residential Care Home", "coordinates": [-0.988003, 50.788798]}, {"name": "Wyncourt Nursing Home", "coordinates": [-2.331149, 53.401593]}, {"name": "Beaconsfield Court Care Home", "coordinates": [-1.919738, 54.546636]}, {"name": "Braemar Lodge", "coordinates": [-1.798498, 51.079436]}, {"name": "Fairdene Lodge", "coordinates": [-0.186975, 50.828313]}, {"name": "Canford Chase", "coordinates": [-1.910751, 50.71782]}, {"name": "Byng House", "coordinates": [-3.008284, 53.648832]}, {"name": "Eve Belle", "coordinates": [0.520034, 51.610003]}, {"name": "Cooperscroft", "coordinates": [-0.163599, 51.698684]}, {"name": "Barchester Cossins House Care Home", "coordinates": [-0.41227, 51.316837]}, {"name": "Woodpeckers", "coordinates": [-1.57883, 50.814808]}, {"name": "Woodleigh Christian Care Home", "coordinates": [-1.199679, 53.149946]}, {"name": "The Belmont", "coordinates": [-2.215757, 52.21687]}, {"name": "Woodley Grange", "coordinates": [-1.470244, 50.997731]}, {"name": "Maplewood Court", "coordinates": [0.552643, 51.254295]}, {"name": "The Willows", "coordinates": [-1.219154, 54.550673]}, {"name": "Maun View", "coordinates": [-1.213217, 53.154522]}, {"name": "The Elms", "coordinates": [-2.650949, 50.966911]}, {"name": "Winchester Heights Care Home - Avery Collection", "coordinates": [-1.341327, 51.076014]}, {"name": "Well Springs Nursing Home", "coordinates": [-1.793112, 53.813204]}, {"name": "Kingfishers", "coordinates": [-1.664258, 50.746525]}, {"name": "Orchard Manor View", "coordinates": [-1.130455, 52.658602]}, {"name": "Belvedere House", "coordinates": [-0.175683, 51.325307]}, {"name": "Hunters Down Care Home", "coordinates": [-0.166252, 52.335424]}, {"name": "Victoria Park Care Home", "coordinates": [-1.47887, 52.407524]}, {"name": "Asra House Residential Care Home", "coordinates": [-1.123794, 52.654535]}, {"name": "The Mayfield Care Home", "coordinates": [-0.635483, 54.483799]}, {"name": "Lincombe Manor Care Centre", "coordinates": [-3.507281, 50.460372]}, {"name": "Garden City Court", "coordinates": [-0.206034, 51.970232]}, {"name": "Balmoral House", "coordinates": [-0.64856, 53.576321]}, {"name": "Heatherton House", "coordinates": [-1.535894, 52.890243]}, {"name": "Newstead House Nursing and Residential Home", "coordinates": [-2.704098, 52.066804]}, {"name": "Park House Care Home", "coordinates": [-1.058046, 54.537021]}, {"name": "Peartree Care Home", "coordinates": [-0.044709, 51.425847]}, {"name": "Barchester Briardene Care Home", "coordinates": [-1.293001, 54.592301]}, {"name": "Mornington Court", "coordinates": [-1.652151, 50.760339]}, {"name": "Eden Cottage Care Home", "coordinates": [-1.532212, 54.522033]}, {"name": "Belmont Lodge Care Centre", "coordinates": [0.083073, 51.607882]}, {"name": "Cavendish Park Care Home", "coordinates": [-1.927241, 52.093011]}, {"name": "Penhurst Gardens Care Home", "coordinates": [-1.549677, 51.942719]}, {"name": "Dungate Manor", "coordinates": [-0.235161, 51.233279]}, {"name": "Bourn View Care Home - Avery Healthcare", "coordinates": [-1.953173, 52.429034]}, {"name": "Bourne View", "coordinates": [-1.910673, 50.74388]}, {"name": "Burnworthy House", "coordinates": [-2.806444, 50.947119]}, {"name": "Kingfisher Court", "coordinates": [-1.242457, 53.126189]}, {"name": "Barchester Southgate Beaumont Care Community", "coordinates": [-0.123005, 51.622498]}, {"name": "Woodlands Park Care Centre", "coordinates": [-0.720182, 51.721495]}, {"name": "Oakfield Croft", "coordinates": [-2.330009, 53.423304]}, {"name": "Jim Gillespie House", "coordinates": [-1.268994, 52.358693]}, {"name": "Beechville", "coordinates": [-2.508474, 53.580308]}, {"name": "Squires Mews Care Home - Avery Healthcare", "coordinates": [-0.865282, 52.2645]}, {"name": "Lammas House Residential Care Home", "coordinates": [-1.53063, 52.414367]}, {"name": "Westfield Lodge Care Home", "coordinates": [-2.106291, 52.989334]}, {"name": "Highbury New Park", "coordinates": [-0.092783, 51.556303]}, {"name": "Anisha Grange", "coordinates": [0.440143, 51.623197]}, {"name": "Harry Priestley House", "coordinates": [130.715, 33.8233]}, {"name": "Grampian Court Care Home", "coordinates": [-1.353162, 54.756792]}, {"name": "Maycroft Manor Care Home", "coordinates": [-0.151028, 50.856528]}, {"name": "Shipston Lodge Nursing Home", "coordinates": [-1.627844, 52.067526]}, {"name": "Westbourne Tower Care Home - Avery Collection", "coordinates": [-1.895293, 50.72186]}, {"name": "Avon Manor", "coordinates": [-0.387267, 50.812895]}, {"name": "Ashfields Care Home", "coordinates": [-1.344937, 53.016356]}, {"name": "Vitality Care Homes (Brookside) Ltd", "coordinates": [-2.13203, 52.818645]}, {"name": "Dearbourne Manor", "coordinates": [-2.588831, 51.50309]}, {"name": "Four Acres", "coordinates": [-1.901428, 52.272367]}, {"name": "Kimberley Court", "coordinates": [-5.088479, 50.412271]}, {"name": "Meadow House Nursing Home", "coordinates": [0.703309, 52.648414]}, {"name": "Glenvale Park", "coordinates": [-0.711736, 52.318784]}, {"name": "Broadlands", "coordinates": [1.696649, 52.477241]}, {"name": "Monkscroft Care Centre", "coordinates": [-2.116654, 51.900426]}, {"name": "Whitecliffe House", "coordinates": [-2.165624, 50.858775]}, {"name": "Riverdale Care Home", "coordinates": [0.563171, 51.871625]}, {"name": "Byron House Care Home", "coordinates": [-0.799923, 51.807306]}, {"name": "Hallamshire", "coordinates": [-1.486251, 53.374531]}, {"name": "Millcroft", "coordinates": [-1.943641, 52.319185]}, {"name": "Tupwood Gate Nursing Home", "coordinates": [-0.078758, 51.272705]}, {"name": "Glenholme Holdingham Grange", "coordinates": [-0.41484, 53.012204]}, {"name": "Meadows Park Care Home", "coordinates": [-0.015746, 53.371837]}, {"name": "Bowood Court Care Home", "coordinates": [-1.947855, 52.310371]}, {"name": "Tadworth Grove Care Home", "coordinates": [-0.241742, 51.28907]}, {"name": "Grosvenor Lodge", "coordinates": [-0.160999, 50.835638]}, {"name": "Low Furlong", "coordinates": [-1.632041, 52.066217]}, {"name": "Torkington House", "coordinates": [-0.275233, 51.51332]}, {"name": "Galanos House", "coordinates": [-1.394074, 52.237095]}, {"name": "Avon Reach", "coordinates": [-1.742606, 50.729207]}, {"name": "Spencer House Care Home - Avery Healthcare", "coordinates": [-0.879509, 52.234904]}, {"name": "Oakland Care Home", "coordinates": [-2.180124, 53.613576]}, {"name": "Amberwood House", "coordinates": [-1.889264, 50.801406]}, {"name": "Beechwood Grove", "coordinates": [0.257115, 50.770705]}, {"name": "Keate House Residential Home", "coordinates": [-2.482196, 53.381374]}, {"name": "Osborne Court Care Home", "coordinates": [-2.606682, 51.435624]}, {"name": "Holly Lodge Care Home", "coordinates": [-1.646933, 54.625934]}, {"name": "Beech Hall", "coordinates": [-1.59393, 53.799115]}, {"name": "Abbey Rose Care Home", "coordinates": [-1.871363, 52.526008]}, {"name": "The Seaton", "coordinates": [-3.069837, 50.708797]}, {"name": "Lily House", "coordinates": [0.271207, 52.413255]}, {"name": "Castlemead Court Care Home", "coordinates": [-0.729477, 52.085755]}, {"name": "Birchwood Heights", "coordinates": [0.171717, 51.401073]}, {"name": "Ivy Court", "coordinates": [-1.153098, 53.508932]}, {"name": "Brandon Park", "coordinates": [0.625271, 52.434867]}, {"name": "Ford Place", "coordinates": [0.753059, 52.410152]}, {"name": "Ardtully Retirement Residence", "coordinates": [0.380856, 51.666634]}, {"name": "Avon Cliff", "coordinates": [-1.858253, 50.723038]}, {"name": "Westbury Court", "coordinates": [-2.187851, 51.26168]}, {"name": "Woodbine Manor", "coordinates": [-0.670749, 50.790408]}, {"name": "Zetland Court", "coordinates": [-1.902023, 50.712174]}, {"name": "Branksome Heights", "coordinates": [-1.901664, 50.727695]}, {"name": "Alexandra House", "coordinates": [-1.932528, 50.727535]}, {"name": "Highfield House Care Home", "coordinates": [1.499886, 52.337596]}, {"name": "Brookholme Residential Home", "coordinates": [-1.471064, 53.229305]}, {"name": "Penhill", "coordinates": [-2.679123, 51.485752]}, {"name": "Graysford Hall", "coordinates": [-1.111439, 52.621872]}, {"name": "Shoemaker Place", "coordinates": [-2.149206, 52.893329]}, {"name": "Fair Havens Care Community", "coordinates": [-1.414134, 50.937062]}, {"name": "Lifestyles", "coordinates": [-1.092949, 53.950134]}, {"name": "Connell Court", "coordinates": [-3.018916, 53.635529]}, {"name": "Warren Farm Lodge", "coordinates": [-1.877898, 52.542092]}, {"name": "Newland House", "coordinates": [-1.476166, 51.788975]}, {"name": "Alderwood Care Home", "coordinates": [0.89328, 51.899103]}, {"name": "Waterside House", "coordinates": [-2.078223, 52.608671]}, {"name": "Beech Lodge Care & Nursing Home", "coordinates": [-3.782781, 55.142601]}, {"name": "Chestnut Manor Care Home", "coordinates": [0.022524, 51.573877]}, {"name": "The Beeches Care Home", "coordinates": [-2.072271, 53.469975]}, {"name": "The Millings", "coordinates": [-1.593143, 54.290134]}, {"name": "Hazelwood Care Home", "coordinates": [0.317704, 51.394211]}, {"name": "Park Lane Residential Home", "coordinates": [-2.204472, 53.161868]}, {"name": "Pennystone Court", "coordinates": [-3.046835, 53.827651]}, {"name": "Douglas Court", "coordinates": [-1.467776, 52.908916]}, {"name": "Ashlands Manor Care Centre", "coordinates": [-2.331857, 53.424863]}, {"name": "Brampton Manor", "coordinates": [0.406422, 52.253295]}, {"name": "Handsworth", "coordinates": [-2.360602, 53.377131]}, {"name": "Elsyng House", "coordinates": [-0.071099, 51.666744]}, {"name": "Summerlands", "coordinates": [-0.095186, 51.011221]}, {"name": "Brackenfield Hall", "coordinates": [-1.407692, 53.349036]}, {"name": "Cedar Lodge", "coordinates": [-0.720578, 51.307681]}, {"name": "Larks Leas Rest Home", "coordinates": [-2.169318, 50.862637]}, {"name": "Laureate Court Care Home", "coordinates": [-1.345903, 53.426789]}, {"name": "Ashbourne Court Care Home", "coordinates": [-1.488781, 51.205254]}, {"name": "Steep House Nursing Home", "coordinates": [-0.940136, 51.015487]}, {"name": "Lyndale Nursing Home", "coordinates": [-2.983564, 53.654798]}, {"name": "Valerian Court Care Home", "coordinates": [-1.231602, 51.607151]}, {"name": "The Check House", "coordinates": [-3.07897, 50.703998]}, {"name": "St George's Nursing Home Witham", "coordinates": [0.643559, 51.804096]}, {"name": "Butlers Mews Care Home - Avery Healthcare", "coordinates": [-1.240443, 52.377833]}, {"name": "The Manor House Harrogate", "coordinates": [-1.560717, 53.99068]}, {"name": "St Catherines View", "coordinates": [-1.343029, 51.054483]}, {"name": "Wellington Grange", "coordinates": [-0.779121, 50.84823]}, {"name": "Barchester Wimbledon Beaumont Care Community", "coordinates": [-0.227157, 51.41605]}, {"name": "Brooklyn House Nursing Home", "coordinates": [1.015098, 52.518454]}, {"name": "Birchmere Mews Care Home - Avery Healthcare", "coordinates": [-1.742671, 52.395923]}, {"name": "Harleston House", "coordinates": [1.753759, 52.487053]}, {"name": "Buckingham House Care Home", "coordinates": [-0.553479, 51.579225]}, {"name": "Harwood Court", "coordinates": [-1.590387, 55.078439]}, {"name": "Brookside", "coordinates": [-2.133531, 51.37408]}, {"name": "Leycester House", "coordinates": [-1.609765, 52.265512]}, {"name": "Norwood Grange Care Home", "coordinates": [-1.463925, 53.413309]}, {"name": "Collinson House", "coordinates": [-0.457184, 51.892318]}, {"name": "Tudor Lodge", "coordinates": [-3.000193, 51.250021]}, {"name": "Heyberry House", "coordinates": [-3.040247, 53.395075]}, {"name": "Brampton Lodge", "coordinates": [1.158311, 51.076698]}, {"name": "Cheviot Court", "coordinates": [-1.399276, 54.980532]}, {"name": "Lime Court", "coordinates": [1.268938, 51.933908]}, {"name": "Richard House Care Home", "coordinates": [-0.622629, 52.916806]}, {"name": "Ashlea Lodge Care Home", "coordinates": [-1.395769, 54.906923]}, {"name": "Avery Park Care Home - Avery Healthcare", "coordinates": [-0.730667, 52.412475]}, {"name": "Bernash Care Home", "coordinates": [-2.561792, 51.422541]}, {"name": "Heathwood", "coordinates": [-2.968799, 51.353559]}, {"name": "Abbots Wood Manor", "coordinates": [0.25092, 50.872321]}, {"name": "Brushwood", "coordinates": [-2.841763, 53.340726]}, {"name": "St Breock Residential Care Home", "coordinates": [-4.839959, 50.515]}, {"name": "Barchester Westlake House Care Home", "coordinates": [-0.318374, 51.085646]}, {"name": "Maple Lodge Care Home", "coordinates": [-1.413586, 54.931329]}, {"name": "Church View Nursing & Residential Home", "coordinates": [-2.926564, 53.421116]}, {"name": "Barton Lodge Care Home", "coordinates": [-1.649368, 50.738954]}, {"name": "Lawn Park Care Home", "coordinates": [-1.244477, 53.126894]}, {"name": "Mavern House Nursing Home", "coordinates": [-2.16241, 51.39083]}, {"name": "Tickford Abbey", "coordinates": [-0.712979, 52.087473]}, {"name": "St George's Lodge", "coordinates": [-0.356981, 50.820027]}, {"name": "Barchester Rose Lodge Care Home", "coordinates": [0.174306, 52.677369]}, {"name": "Woodland View", "coordinates": [-2.142397, 52.249671]}, {"name": "Newbridge House", "coordinates": [-2.155323, 52.593678]}, {"name": "Ashbourne Lodge", "coordinates": [-1.721792, 53.009599]}, {"name": "The Homestead", "coordinates": [-1.594275, 51.772097]}, {"name": "Studley Rose Care Home", "coordinates": [-1.89771, 52.270709]}, {"name": "Falstone Court Care Home", "coordinates": [-1.367494, 54.926865]}, {"name": "Hunters Lodge", "coordinates": [-1.190041, 50.864115]}, {"name": "Hartford Court Care Home", "coordinates": [-1.579313, 55.087367]}, {"name": "Country Lodge Nursing Home", "coordinates": [-0.418472, 50.843119]}, {"name": "Sherwood Grange", "coordinates": [-0.257987, 51.433419]}, {"name": "West Hill Care Home", "coordinates": [0.209933, 51.446106]}, {"name": "Oakwood Grange", "coordinates": [-1.45966, 53.599154]}, {"name": "Kathleen's Lodge", "coordinates": [-0.2828, 50.840561]}, {"name": "De Lucy House", "coordinates": [1.127637, 52.368686]}, {"name": "Newcross Care Home - Avery Healthcare", "coordinates": [-2.098605, 52.603577]}, {"name": "Knappe Cross Care Centre", "coordinates": [-3.38884, 50.640591]}, {"name": "Glennfield Care Home", "coordinates": [0.17108, 52.660643]}, {"name": "Clara Court", "coordinates": [-0.744993, 51.52103]}, {"name": "Flowers Manor Care Home", "coordinates": [-2.114308, 51.456255]}, {"name": "Lace Hill Manor", "coordinates": [-0.973059, 51.987736]}, {"name": "Anley Hall", "coordinates": [-2.288937, 54.058535]}, {"name": "Roxburgh House Care Home", "coordinates": [-2.072108, 52.47671]}, {"name": "Hutton View Care Home", "coordinates": [0.341761, 51.631235]}, {"name": "Barchester Reigate Beaumont", "coordinates": [-0.221173, 51.242015]}, {"name": "Abbey Wood Lodge", "coordinates": [-2.893151, 53.565632]}, {"name": "The Long Brook Residential Home", "coordinates": [-4.04952, 50.382413]}, {"name": "Hampstead Court Care Home - Avery Collection", "coordinates": [-0.180735, 51.539706]}, {"name": "Castlecroft Residential Care Home", "coordinates": [-1.962019, 52.437326]}, {"name": "Farnham Mill Nursing Home", "coordinates": [-0.779728, 51.221535]}, {"name": "Appleton Lodge Care Home", "coordinates": [-2.124078, 53.42933]}, {"name": "Eric Morecambe House", "coordinates": [-2.832217, 54.067102]}, {"name": "Aashna House Residential Care Home", "coordinates": [-0.141804, 51.417363]}, {"name": "Park Hall", "coordinates": [-2.119377, 53.007724]}, {"name": "Barchester Red Oaks Care Home", "coordinates": [-0.277039, 50.929428]}, {"name": "Appleby House", "coordinates": [-0.266916, 51.343032]}, {"name": "Willowcroft", "coordinates": [-1.402789, 52.912743]}, {"name": "Harden Hall", "coordinates": [-1.974839, 52.606222]}, {"name": "Icknield Court", "coordinates": [-0.827605, 51.724207]}, {"name": "Grove Park Care Home - Avery Healthcare", "coordinates": [-1.566392, 53.823807]}, {"name": "Glenholme House", "coordinates": [-1.370819, 54.926802]}, {"name": "Newbury Grove", "coordinates": [-1.297173, 51.404869]}, {"name": "Mountside Residential Home", "coordinates": [0.580807, 50.866412]}, {"name": "Summerhill", "coordinates": [-1.707324, 55.40869]}, {"name": "Dashwood Manor", "coordinates": [-1.143997, 51.232734]}, {"name": "Avalon Nursing and Dementia Home", "coordinates": [0.272464, 50.796791]}, {"name": "Three Bridges Nursing Home", "coordinates": [-2.552611, 53.382319]}, {"name": "Willowcroft", "coordinates": [-1.795362, 51.055754]}, {"name": "Lincroft Meadow Care Home", "coordinates": [-1.299591, 51.831004]}, {"name": "Ivy Grove", "coordinates": [0.003962, 51.618476]}, {"name": "Court Lodge", "coordinates": [-1.550299, 50.750251]}, {"name": "The Oast Care Home", "coordinates": [0.531813, 51.260225]}, {"name": "Chandler Court", "coordinates": [-2.061152, 52.337728]}, {"name": "Coniston House Care Home", "coordinates": [-2.642783, 53.644306]}, {"name": "Grove Court", "coordinates": [1.311033, 52.088188]}, {"name": "Holly Oak Care Centre", "coordinates": [-2.349281, 51.683843]}, {"name": "Rosewood Care Home", "coordinates": [0.283205, 51.444468]}, {"name": "Sandfields", "coordinates": [-2.091272, 51.901412]}, {"name": "Fenchurch House Care Home", "coordinates": [-0.173218, 52.76715]}, {"name": "Willow Tree Lodge", "coordinates": [-1.194565, 50.865459]}, {"name": "Oak Manor Care Home", "coordinates": [-0.330199, 52.031827]}, {"name": "Caer Gwent", "coordinates": [-0.389564, 50.81504]}, {"name": "Westbury Grange", "coordinates": [-0.73714, 52.086791]}, {"name": "Barchester Wimborne Care Home", "coordinates": [-0.969247, 50.786907]}, {"name": "Guy's Court Residential Care Home", "coordinates": [-3.033816, 53.918357]}, {"name": "Barchester Mallard Court Care Home", "coordinates": [-0.212324, 54.075308]}, {"name": "Ashgrove House Care Ltd", "coordinates": [-2.160475, 53.522757]}, {"name": "Hartsholme House", "coordinates": [-0.582382, 53.212272]}, {"name": "Gateford Hill Care Home", "coordinates": [-1.144929, 53.331595]}, {"name": "Windsor Court Residential Home", "coordinates": [-1.329522, 54.55941]}, {"name": "Abbey View Nursing & Residential Home", "coordinates": [-2.517236, 50.952251]}, {"name": "Redcot Residential Care Home", "coordinates": [-0.69947, 51.092799]}, {"name": "Sweyne Court", "coordinates": [0.610572, 51.588643]}, {"name": "Bridgeside Lodge Care Centre", "coordinates": [-0.09729, 51.532654]}, {"name": "Kiln Lodge", "coordinates": [-1.188828, 50.86443]}, {"name": "Astbury Manor Care Home - Avery Healthcare", "coordinates": [-0.75181, 51.411311]}, {"name": "Park View Gloucester", "coordinates": [-2.250123, 51.858743]}, {"name": "Highmarket House", "coordinates": [-1.3407, 52.062627]}, {"name": "Barchester Paternoster House Care Home", "coordinates": [0.019803, 51.691114]}, {"name": "Kiwi House Care Home", "coordinates": [-1.444296, 52.89475]}, {"name": "Droitwich Mews Care Home - Avery Healthcare", "coordinates": [-2.142488, 52.255173]}, {"name": "Lothian House Care Home", "coordinates": [-1.608512, 54.695264]}, {"name": "Millers Grange", "coordinates": [-1.504978, 51.78193]}, {"name": "St Anne's Court", "coordinates": [-1.879334, 50.73055]}, {"name": "Gregory House", "coordinates": [-0.644262, 52.918457]}, {"name": "Halcon Centre", "coordinates": [-3.077507, 51.018509]}]