[{"name": "AARANDALE MANOR", "coordinates": [-0.210252, 51.599189]}, {"name": "ABBCROSS NURSING HOME", "coordinates": [0.1878023, 51.5713142]}, {"name": "ABBEY CARE COMPLEX", "coordinates": [0.0869601, 51.5772597]}, {"name": "ABBEY RAVENSCROFT PARK NURSING HOME", "coordinates": [-0.2092753, 51.654317]}, {"name": "ABBOTSLEIGH MEWS CARE HOME", "coordinates": [0.099142, 51.4359929]}, {"name": "ACACIA CARE CENTRE", "coordinates": [-0.0757881, 51.401632]}, {"name": "ACORN LODGE CARE CENTRE", "coordinates": [-0.0533938, 51.5550447]}, {"name": "ACTON CARE CENTRE", "coordinates": [-0.2780957, 51.5062992]}, {"name": "ADDINGTON HEIGHTS", "coordinates": [-0.0098941, 51.3367916]}, {"name": "ADELAIDE CARE HOME", "coordinates": [0.1362561, 51.4584752]}, {"name": "ALBANY LODGE NURSING HOME", "coordinates": [-0.0924088, 51.3816701]}, {"name": "ALBANY NURSING HOME", "coordinates": [-0.018515485, 51.5732827]}, {"name": "ALBANY PARK NURSING HOME", "coordinates": [-0.0390149, 51.669601]}, {"name": "ALEXANDER CARE HOME", "coordinates": [-0.0243119, 51.4538131]}, {"name": "ALEXANDER COURT CARE CENTRE", "coordinates": [0.1610465, 51.5511111]}, {"name": "AMBERLEY LODGE", "coordinates": [-0.125520721, 51.33238735]}, {"name": "ANITA DORFMAN HOUSE", "coordinates": [-0.342435, 51.621357]}, {"name": "ANTOKOL", "coordinates": [0.0823716, 51.4108975]}, {"name": "APPLETREE COURT CARE HOME", "coordinates": [-0.2678462, 51.6010018]}, {"name": "ASH COURT CARE CENTRE", "coordinates": [-0.1386279, 51.5528273]}, {"name": "ASHBROOK NURSING HOME", "coordinates": [0.1777616, 51.6037648]}, {"name": "ASHGREEN HOUSE RESIDENTIAL AND NURSING HOME", "coordinates": [0.0751631, 51.486706]}, {"name": "ASHGROVE CARE HOME", "coordinates": [-0.361878, 51.466478]}, {"name": "ASHMEAD CARE CENTRE", "coordinates": [-0.2311273, 51.4554464]}, {"name": "ASHTON LODGE", "coordinates": [-0.164821714, 51.5161106]}, {"name": "ASHWOOD CARE CENTRE", "coordinates": [-0.4275698, 51.5270194]}, {"name": "ASPEN COURT CARE HOME", "coordinates": [-0.025777075, 51.51462995]}, {"name": "ASPRAY HOUSE", "coordinates": [-0.057411475, 51.5328972]}, {"name": "ATFIELD HOUSE CARE HOME", "coordinates": [-0.3338149, 51.4716659]}, {"name": "ATHLONE HOUSE NURSING HOME", "coordinates": [-0.198635061, 51.52257845]}, {"name": "AUTUMN GARDENS", "coordinates": [-0.1398813, 51.6405256]}, {"name": "AZALEA COURT", "coordinates": [-0.070718507, 51.64270635]}, {"name": "BARLEYCROFT CARE HOME LTD.", "coordinates": [0.1649251, 51.5751861]}, {"name": "BARNET GRANGE CARE HOME", "coordinates": [-0.2050944, 51.652927]}, {"name": "BARONS LODGE PSYCHIATRIC NURSING & REHABILITATION", "coordinates": [-0.1686815, 51.3987609]}, {"name": "BARONS LODGE SUTTON", "coordinates": [-0.185428, 51.3601347]}, {"name": "BARRINGTON LODGE NURSING HOME", "coordinates": [-0.0835414, 51.3815689]}, {"name": "BAUGH HOUSE", "coordinates": [0.118423051, 51.4202682]}, {"name": "BAYCROFT ORPINGTON", "coordinates": [0.1106673, 51.4080457]}, {"name": "BEACHCROFT HOUSE", "coordinates": [-0.1920812, 51.5260824]}, {"name": "BECKENHAM PARK CARE HOME", "coordinates": [-0.0206087, 51.3952942]}, {"name": "BEECH COURT CARE CENTRE", "coordinates": [0.1867275, 51.5684146]}, {"name": "BEECHCROFT CARE CENTRE", "coordinates": [-0.0063042, 51.4450737]}, {"name": "BEIS PINCHOS NURSING HOME", "coordinates": [-0.0869702, 51.5660975]}, {"name": "BELMONT HOUSE", "coordinates": [-0.1990655, 51.3561238]}, {"name": "BENNETTS CASTLE CARE HOME", "coordinates": [0.1251125, 51.5514831]}, {"name": "BHAKTI SHYAMA CARE CENTRE", "coordinates": [-0.147344, 51.446745]}, {"name": "BIRCHWOOD GRANGE CARE HOME", "coordinates": [-0.292031819, 51.576727]}, {"name": "BLAKESLEY HOUSE NURSING HOME", "coordinates": [-0.307919, 51.5181756]}, {"name": "BLYTH", "coordinates": [0.0093268, 51.4085223]}, {"name": "BOURNE HOUSE NURSING HOME", "coordinates": [-0.3028558, 51.3853424]}, {"name": "BRIDGE HOUSE CARE CENTRE", "coordinates": [-0.1540208, 51.3688494]}, {"name": "BRIDGESIDE LODGE", "coordinates": [-0.097522, 51.532579]}, {"name": "BRIDGEWOOD HOUSE", "coordinates": [-0.0471106, 51.6626446]}, {"name": "BRINSWORTH HOUSE RESIDENTIAL AND NURSING HOME", "coordinates": [-0.349030346, 51.44381525]}, {"name": "BROMLEY PARK CARE HOME", "coordinates": [-0.010025276, 51.4069425]}, {"name": "BROOK HOUSE", "coordinates": [-0.2632486, 51.3952262]}, {"name": "BROOK HOUSE CARE CENTRE", "coordinates": [0.10891, 51.507123]}, {"name": "BROOK HOUSE CARE HOME", "coordinates": [-0.2875149, 51.5652197]}, {"name": "BROOKWATER HOUSE CARE HOME", "coordinates": [-0.1042011, 51.6145414]}, {"name": "BROWNHILL LODGE", "coordinates": [-0.0063042, 51.4450737]}, {"name": "BRYMORE HOUSE", "coordinates": [0.019977, 51.43591]}, {"name": "BUCHANAN COURT", "coordinates": [-0.3331969, 51.5628077]}, {"name": "CAMBERWELL LODGE CARE & NURSING HOME", "coordinates": [-0.08916, 51.478042]}, {"name": "CAMBRIDGE NURSING HOME", "coordinates": [0.0229492, 51.5737398]}, {"name": "CANDLEWOOD HOUSE", "coordinates": [-0.2074333, 51.5606369]}, {"name": "CANTELOWES HOUSE", "coordinates": [-0.21518, 51.6483978]}, {"name": "CARLTON COURT CARE HOME", "coordinates": [-0.214969405, 51.64761495]}, {"name": "CARRICK HOUSE NURSING HOME", "coordinates": [-0.315675419, 51.57905105]}, {"name": "CARSHALTON NURSING HOME", "coordinates": [-0.1657312, 51.3607444]}, {"name": "CARTER HOUSE", "coordinates": [-0.2353347, 51.4073242]}, {"name": "CASTLE CLUB", "coordinates": [-0.099076, 51.509648]}, {"name": "CEDAR HOUSE", "coordinates": [-0.3802407, 51.5944619]}, {"name": "CEDAR VIEW CARE CENTRE", "coordinates": [-0.0895926, 51.3677253]}, {"name": "CEDARS NURSING HOME", "coordinates": [-0.1788902, 51.6465727]}, {"name": "CHARLOTTE HOUSE CARE HOME", "coordinates": [-0.3212595, 51.4728288]}, {"name": "CHARLTON PARK CARE HOME", "coordinates": [0.048038, 51.480734]}, {"name": "CHEGWORTH NURSING HOME", "coordinates": [-0.2069395, 51.3404281]}, {"name": "CHELSEA COURT PLACE", "coordinates": [-0.1683574, 51.4877538]}, {"name": "CHERRY ORCHARD NURSING HOME", "coordinates": [0.1397466, 51.5358582]}, {"name": "CHESTNUT COURT CARE HOME", "coordinates": [0.1552153, 51.5533166]}, {"name": "CHESTNUT LODGE", "coordinates": [-0.3086758, 51.5249824]}, {"name": "CHESTNUT MANOR CARE HOME", "coordinates": [0.0229492, 51.5737398]}, {"name": "CHEVERTON LODGE CARE HOME", "coordinates": [-0.1309703, 51.5709685]}, {"name": "CHURCHFIELDS NURSING HOME", "coordinates": [0.024752, 51.597971]}, {"name": "CLAIRLEIGH NURSING HOME", "coordinates": [0.0303662, 51.4082562]}, {"name": "CLARE HOUSE CARE HOME", "coordinates": [-0.4767094, 51.5544782]}, {"name": "CLARENDON NURSING HOME", "coordinates": [-0.0926588, 51.3958465]}, {"name": "CLOISTERS", "coordinates": [-0.368401, 51.4684071]}, {"name": "COLLINGWOOD COURT CARE HOME", "coordinates": [-0.1332406, 51.4613245]}, {"name": "COLOMA COURT", "coordinates": [-0.0045907, 51.3674203]}, {"name": "CONIFERS THE", "coordinates": [-0.1097132, 51.6154003]}, {"name": "COOMBE HILL MANOR", "coordinates": [-0.2525305, 51.4159162]}, {"name": "COPLANDS NURSING HOME", "coordinates": [-0.3063728, 51.5527452]}, {"name": "CRANHAM COURT NURSING HOME", "coordinates": [0.2863167, 51.5595058]}, {"name": "CROSSWAYS NURSING HOME", "coordinates": [-0.2004871, 51.3536225]}, {"name": "CULLUM WELCH COURT", "coordinates": [0.019462, 51.469554]}, {"name": "CUMBERLAND CARE HOME", "coordinates": [-0.1646702, 51.4037655]}, {"name": "DEER PARK VIEW CARE CENTRE", "coordinates": [-0.2308072, 51.4071723]}, {"name": "DENVILLE HALL", "coordinates": [-0.4386853, 51.6120453]}, {"name": "DERHAM HOUSE CARE HOME", "coordinates": [0.2494088, 51.5420526]}, {"name": "DERWENT LODGE CARE CENTRE", "coordinates": [-0.404353, 51.445848]}, {"name": "DRAYTON VILLAGE CARE CENTRE", "coordinates": [-0.459001466, 51.50478965]}, {"name": "EALING MANOR NURSING HOME", "coordinates": [-0.2984026, 51.5086174]}, {"name": "EDEN COURT CARE HOME", "coordinates": [-0.1689194, 51.4713118]}, {"name": "ELIZABETH LODGE", "coordinates": [-0.117300964, 51.6454991]}, {"name": "ELLESMERE HOUSE", "coordinates": [-0.181315503, 51.4850766]}, {"name": "ELMSTEAD HOUSE", "coordinates": [-0.2385115, 51.5766172]}, {"name": "ELMWOOD", "coordinates": [0.0454811, 51.4002768]}, {"name": "ELSYNG HOUSE", "coordinates": [-0.0720629, 51.6667263]}, {"name": "ELTANDIA HALL CARE CENTRE", "coordinates": [-0.137217, 51.4066]}, {"name": "FAIRLIE HOUSE NURSING HOME", "coordinates": [-0.1118377, 51.4302805]}, {"name": "FAIRLIGHT & FALLOWFIELD", "coordinates": [0.0735038, 51.4153292]}, {"name": "FARM LANE CARE HOME", "coordinates": [-0.196449626, 51.48227785]}, {"name": "FERN GARDENS CARE HOME", "coordinates": [-0.4085497, 51.4501489]}, {"name": "FERNBANK NURSING HOME", "coordinates": [-0.194207, 51.607997]}, {"name": "FIELDWAY CARE HOME", "coordinates": [-0.1709745, 51.3973229]}, {"name": "FLORENCE NURSING HOME", "coordinates": [0.090195607, 51.3971868]}, {"name": "FOLKESTONE NURSING HOME", "coordinates": [0.065585984, 51.52884865]}, {"name": "FOREST LODGE", "coordinates": [0.022045986, 51.5456189]}, {"name": "FORRESTER COURT", "coordinates": [-0.1917261, 51.5214812]}, {"name": "FOXBRIDGE HOUSE", "coordinates": [0.0934569, 51.345761]}, {"name": "FRANKLIN HOUSE", "coordinates": [-0.464179, 51.502243]}, {"name": "FRITHWOOD NURSING HOME", "coordinates": [-0.4177002, 51.615418]}, {"name": "FROGNAL HOUSE CARE HOME", "coordinates": [0.1013937, 51.4183432]}, {"name": "GABLE COURT CARE HOME", "coordinates": [0.123167, 51.5712922]}, {"name": "GALSWORTHY HOUSE NURSING HOME", "coordinates": [-0.2721553, 51.4276338]}, {"name": "GARSIDE HOUSE NURSING HOME", "coordinates": [-0.131967042, 51.49046825]}, {"name": "GEORGE POTTER HOUSE", "coordinates": [-0.0527301, 51.4148841]}, {"name": "GEORGIAN HOUSE NURSING HOME", "coordinates": [-0.314439916, 51.50682675]}, {"name": "GIBSONS LODGE", "coordinates": [-0.1092076, 51.419932]}, {"name": "GREENHILL", "coordinates": [0.0046621, 51.4152298]}, {"name": "GRENNELL LODGE", "coordinates": [-0.1853493, 51.3732781]}, {"name": "GREVILLE HOUSE", "coordinates": [-0.2905316, 51.4561042]}, {"name": "HADLEY HOUSE NURSING HOME", "coordinates": [-0.3116513, 51.5973888]}, {"name": "HADLEY LAWNS CARE HOME", "coordinates": [-0.1991914, 51.6689975]}, {"name": "HALING PARK CARE HOME", "coordinates": [-0.1039393, 51.3647354]}, {"name": "HAMILTON NURSING HOME", "coordinates": [-0.3045089, 51.3840802]}, {"name": "HAMMERSON HOUSE", "coordinates": [-0.171884, 51.577653]}, {"name": "HAMMERSON HOUSE", "coordinates": [-0.167521, 51.58403]}, {"name": "HAMPTON CARE", "coordinates": [-0.3810547, 51.4137506]}, {"name": "HANBURY COURT CARE HOME", "coordinates": [0.1687581, 51.5396025]}, {"name": "HARTS HOUSE CARE HOME", "coordinates": [0.0273075, 51.6094697]}, {"name": "HAVELOCK COURT CARE HOME", "coordinates": [-0.1132174, 51.4691695]}, {"name": "HAVERING COURT CARE HOME", "coordinates": [0.175116, 51.5943898]}, {"name": "HAYES COTTAGE NURSING HOME", "coordinates": [-0.424289, 51.520773]}, {"name": "HAYES COURT", "coordinates": [-0.1015583, 51.3254812]}, {"name": "HEATHERBROOK", "coordinates": [0.1732301, 51.5792659]}, {"name": "HEATHERWOOD NURSING HOME", "coordinates": [-0.1263305, 51.3417392]}, {"name": "HEATHFIELD COURT CARE HOME", "coordinates": [0.1644458, 51.4714306]}, {"name": "HEATHGROVE LODGE CARE HOME", "coordinates": [-0.1959346, 51.572209]}, {"name": "HEATHLAND COURT CARE HOME", "coordinates": [-0.223774083, 51.43711855]}, {"name": "HEATHLANDS CARE CENTRE", "coordinates": [0.0055647, 51.6188056]}, {"name": "HEAVERS COURT", "coordinates": [-0.0872279, 51.3932463]}, {"name": "HENRY NIHILL HOUSE", "coordinates": [-0.268548, 51.6208922]}, {"name": "HERITAGE CARE CENTRE", "coordinates": [-0.1533759, 51.4302511]}, {"name": "HIGH MEADOWS CARE HOME", "coordinates": [-0.398479, 51.591985]}, {"name": "HIGHBURY NEW PARK", "coordinates": [-0.12765, 51.5073359]}, {"name": "HIGHFIELD HOUSE", "coordinates": [-0.1154096, 51.333909]}, {"name": "HILL HOUSE NURSING HOME LIMITED", "coordinates": [-0.1078203, 51.321686]}, {"name": "HILLSIDE NURSING HOME", "coordinates": [0.2185209, 51.6144359]}, {"name": "HOLLY BUSH NURSING HOME", "coordinates": [-0.322255, 51.6113702]}, {"name": "HOMEFIELD NURSING HOME", "coordinates": [0.0454811, 51.4002768]}, {"name": "HUGH MYDDELTON HOUSE CARE CENTRE", "coordinates": [-0.132455045, 51.63712315]}, {"name": "INAYA CARE", "coordinates": [-0.1266706, 51.4301629]}, {"name": "JAMES TERRY COURT", "coordinates": [-0.1065378, 51.3602088]}, {"name": "JANSONDEAN NURSING HOME", "coordinates": [-0.0110868, 51.4042786]}, {"name": "JESMUND NURSING HOME", "coordinates": [-0.20415, 51.353773]}, {"name": "KARUNA MANOR", "coordinates": [-0.324841, 51.5907877]}, {"name": "KELSTONE COURT NURSING HOME", "coordinates": [-0.2210141, 51.3924037]}, {"name": "KENBROOK", "coordinates": [-0.282330549, 51.56551365]}, {"name": "KENILWORTH NURSING HOME", "coordinates": [-0.200653437, 51.5400795]}, {"name": "KENWOOD", "coordinates": [-0.1827389, 51.6121873]}, {"name": "KEW HOUSE CARE HOME", "coordinates": [-0.2126434, 51.4187848]}, {"name": "KINGSLEY COURT CARE HOME", "coordinates": [-0.3975007, 51.5152192]}, {"name": "KINGSTON CARE HOME", "coordinates": [-0.310941, 51.409565]}, {"name": "KNIGHTS COURT CARE HOME", "coordinates": [-0.2810286, 51.612277]}, {"name": "KYN BICKLEY", "coordinates": [0.05451, 51.401967]}, {"name": "LADYVILLE LODGE NURSING HOME", "coordinates": [0.3170256, 51.5434681]}, {"name": "LAKESIDE NURSING HOME", "coordinates": [-0.0756518, 51.4144541]}, {"name": "LANGLEY OAKS", "coordinates": [-0.071138, 51.344556]}, {"name": "LANSDOWNE (LONDON) CARE HOME", "coordinates": [-0.2050026, 51.5332041]}, {"name": "LAUREL DENE", "coordinates": [-0.353191, 51.428031]}, {"name": "LAVENDER OAKS", "coordinates": [-0.16947, 51.364113]}, {"name": "LENNOX HOUSE", "coordinates": [-0.1124099, 51.564072]}, {"name": "LIMETREE CARE CENTRE", "coordinates": [-0.118364509, 51.4425308]}, {"name": "LINK HOUSE", "coordinates": [-0.2315349, 51.4028882]}, {"name": "LLOYD PARK NURSING HOME", "coordinates": [-0.0798799, 51.3638025]}, {"name": "LODORE NURSING HOME", "coordinates": [-0.1814266, 51.357243]}, {"name": "LOVEDAY ABBEY ROAD", "coordinates": [-0.072788606, 51.6445306]}, {"name": "LOVEDAY CHELSEA COURT PLACE", "coordinates": [-0.171711054, 51.4861868]}, {"name": "LOVEDAY KENSINGTON", "coordinates": [-0.189052334, 51.50101585]}, {"name": "LOVEDAY NOTTING HILL", "coordinates": [-0.190832, 51.51332]}, {"name": "LYNDE HOUSE CARE HOME", "coordinates": [-0.3113778, 51.4539069]}, {"name": "LYNDHURST NURSING HOME", "coordinates": [0.140291, 51.4470369]}, {"name": "LYNTON HALL CARE HOME", "coordinates": [-0.2642368, 51.3963737]}, {"name": "MAGNOLIA COURT CARE HOME", "coordinates": [-0.2020606, 51.5661117]}, {"name": "MAITLAND PARK CARE HOME", "coordinates": [-0.156424, 51.54774]}, {"name": "MANLEY COURT CARE HOME", "coordinates": [-0.045244, 51.481364]}, {"name": "MANOR COURT CARE HOME", "coordinates": [-0.3722354, 51.5161475]}, {"name": "MANOR FARM CARE HOME", "coordinates": [0.0570833, 51.5250119]}, {"name": "MAPLES CARE HOME", "coordinates": [0.1289443, 51.4607679]}, {"name": "MARGARET THATCHER INFIRMARY", "coordinates": [-0.161763, 51.485902]}, {"name": "MARIAN HOUSE", "coordinates": [-0.465246, 51.5291908]}, {"name": "MARLBOROUGH COURT CARE HOME", "coordinates": [0.1222402, 51.510999]}, {"name": "MARTIN HOUSE", "coordinates": [-0.3734027, 51.5017118]}, {"name": "MARYVILLE CARE HOME", "coordinates": [-0.3086461, 51.4847918]}, {"name": "MEADBANK CARE HOME", "coordinates": [-0.1669364, 51.479109]}, {"name": "MEADOWS HOUSE RESIDENTIAL AND NURSING HOME", "coordinates": [0.029002, 51.461281]}, {"name": "MEERA HOUSE NURSING HOME", "coordinates": [-0.2660519, 51.5898318]}, {"name": "MEYER HOUSE", "coordinates": [0.185438, 51.481276]}, {"name": "MIDDLESEX MANOR CARE HOME", "coordinates": [-0.278581032, 51.54813395]}, {"name": "MILVERTON NURSING HOME", "coordinates": [-0.3003781, 51.3830651]}, {"name": "MORELAND CARE HOME", "coordinates": [0.2092946, 51.5783737]}, {"name": "MORNINGTON HALL CARE HOME", "coordinates": [0.043971753, 51.5544376]}, {"name": "MURIEL STREET RESOURCE CENTRE", "coordinates": [-0.1148261, 51.5349206]}, {"name": "MURRAYFIELD CARE HOME", "coordinates": [-0.054464, 51.610873]}, {"name": "NAIRN HOUSE CARE HOME", "coordinates": [-0.06441619, 51.6650414]}, {"name": "NAZARETH HOUSE", "coordinates": [-0.218399971, 51.4920936]}, {"name": "NEEM TREE CARE CENTRE", "coordinates": [-0.3500371, 51.5342211]}, {"name": "NIGHTINGALE HOUSE", "coordinates": [-0.159712631, 51.4489849]}, {"name": "NORWOOD GREEN CARE HOME", "coordinates": [-0.36972, 51.492967]}, {"name": "OAKLEIGH PARK CARE HOME", "coordinates": [-0.167975226, 51.63446035]}, {"name": "OATLEIGH CARE HOME", "coordinates": [-0.0622736, 51.4095318]}, {"name": "OGILVY COURT", "coordinates": [-0.2677962, 51.565122]}, {"name": "ORCHARD HOUSE NURSING HOME", "coordinates": [-0.1962658, 51.3723125]}, {"name": "ORFORD HOUSE", "coordinates": [-0.14061, 51.317577]}, {"name": "OTTO SCHIFF CARE HOME", "coordinates": [-0.19520482, 51.59689105]}, {"name": "PARK AVENUE CARE CENTRE", "coordinates": [0.0109605, 51.4168276]}, {"name": "PARK VIEW CARE HOME", "coordinates": [0.1516369, 51.5353709]}, {"name": "PARKFIELD HOUSE NURSING HOME", "coordinates": [-0.4497796, 51.5341362]}, {"name": "PARKVIEW NURSING HOME", "coordinates": [-0.0922217, 51.4164475]}, {"name": "PEARTREE CARE CENTRE", "coordinates": [-0.0444263, 51.4259094]}, {"name": "PEONY COURT CARE HOME", "coordinates": [-0.081095, 51.3750658]}, {"name": "PEREGRINE HOUSE", "coordinates": [-0.08671, 51.5797784]}, {"name": "PRIMROSE HOUSE NURSING HOME", "coordinates": [-0.3133679, 51.5978805]}, {"name": "PRINCE GEORGE DUKE OF KENT COURT", "coordinates": [0.0804117, 51.4136531]}, {"name": "PRINCESS LOUISE KENSINGTON NURSING HOME", "coordinates": [-0.2219502, 51.5205203]}, {"name": "PRISCILLA WAKEFIELD HOUSE", "coordinates": [-0.0693711, 51.5829827]}, {"name": "PUDDINGSTONE GRANGE", "coordinates": [0.0723089, 51.4820257]}, {"name": "PURLEY GARDENS CARE HOME", "coordinates": [-0.118173594, 51.3402006]}, {"name": "PURLEY VIEW NURSING HOME", "coordinates": [-0.1183243, 51.3374782]}, {"name": "QUEEN ELIZABETH II INFIRMARY", "coordinates": [-0.100230068, 51.52090755]}, {"name": "QUEENS COURT CARE HOME", "coordinates": [-0.202832548, 51.4224166]}, {"name": "RAVENSCOURT NURSING HOME", "coordinates": [0.220856163, 51.55711385]}, {"name": "RED COURT CARE HOME", "coordinates": [-0.0898837, 51.3692092]}, {"name": "RIVERLEE RESIDENTIAL AND NURSING HOME", "coordinates": [-0.016703, 51.472057]}, {"name": "ROMFORD GRANGE NURSING HOME", "coordinates": [0.1661558, 51.5921647]}, {"name": "ROMFORD NURSING CARE CENTRE", "coordinates": [0.2161975, 51.5947936]}, {"name": "ROSEDENE", "coordinates": [-0.1637992, 51.4393952]}, {"name": "ROSEWOOD HOUSE CARE HOME", "coordinates": [-0.048644434, 51.51861865]}, {"name": "ROWANWEALD RESIDENTIAL AND NURSING HOME", "coordinates": [-0.3393829, 51.6036372]}, {"name": "RUISLIP NURSING HOME", "coordinates": [-0.4224511, 51.570749]}, {"name": "RYEFIELD COURT", "coordinates": [-0.4816672, 51.5449509]}, {"name": "SAGE", "coordinates": [-0.2051248, 51.5763704]}, {"name": "SAI RAM VILLA", "coordinates": [-0.335352, 51.5944595]}, {"name": "SEABROOKE MANOR CARE HOME", "coordinates": [0.0709239, 51.5462776]}, {"name": "SHACKLETON NURSING HOME", "coordinates": [-0.3768672, 51.5139188]}, {"name": "SHERRELL HOUSE CARE CENTRE", "coordinates": [0.082417507, 51.6103012]}, {"name": "SHERWOOD GRANGE", "coordinates": [-0.2583327, 51.4321986]}, {"name": "SHIRLEY VIEW NURSING HOME", "coordinates": [-0.2122287, 51.3468337]}, {"name": "SIGNATURE AT ENFIELD", "coordinates": [-0.0810175, 51.6520851]}, {"name": "SIGNATURE AT HIGHGATE", "coordinates": [-0.172219047, 51.57502435]}, {"name": "SLOANE NURSING HOME", "coordinates": [-0.0248129, 51.412143]}, {"name": "SMYTH LODGE", "coordinates": [0.1013937, 51.4183432]}, {"name": "SONESTA NURSING HOME", "coordinates": [-0.1961482, 51.5665325]}, {"name": "SOUTHBOROUGH NURSING HOME", "coordinates": [-0.302697682, 51.38497995]}, {"name": "SOUTHDOWN NURSING HOME", "coordinates": [-0.2028931, 51.347623]}, {"name": "SOUTHGATE BEAUMONT CARE COMMUNITY", "coordinates": [-0.1228934, 51.6227609]}, {"name": "SPEIRS HOUSE", "coordinates": [-0.2588265, 51.4098753]}, {"name": "SPRINGFIELD CARE CENTRE", "coordinates": [0.0814316, 51.5741242]}, {"name": "ST ANNE'S HOME", "coordinates": [-0.019214791, 51.5700082]}, {"name": "ST ANNE'S NURSING HOME", "coordinates": [-0.1124099, 51.564072]}, {"name": "ST AUBYNS", "coordinates": [0.096313838, 51.4293955]}, {"name": "ST DAVID'S NURSING HOME", "coordinates": [-0.314588028, 51.52217045]}, {"name": "ST GEORGE'S NURSING HOME", "coordinates": [-0.1343, 51.48797]}, {"name": "ST JOHN'S NURSING HOME LIMITED", "coordinates": [-0.1065378, 51.3602088]}, {"name": "ST JUDES NURSING HOME", "coordinates": [-0.1813394, 51.3578047]}, {"name": "ST MARY'S CARE HOME", "coordinates": [-0.1330851, 51.4300197]}, {"name": "ST MARY'S CONVENT & NURSING HOME", "coordinates": [-0.2518359, 51.4866503]}, {"name": "ST MARYS NURSING HOME", "coordinates": [0.081313721, 51.4310386]}, {"name": "ST PETER'S RESIDENCE", "coordinates": [-0.119265986, 51.4827422]}, {"name": "ST TERESA'S HOME FOR THE ELDERLY", "coordinates": [-0.225429174, 51.4165795]}, {"name": "ST VINCENTS HOUSE", "coordinates": [-0.2254694, 51.4905384]}, {"name": "ST VINCENT'S NURSING HOME", "coordinates": [-0.4173427, 51.5941111]}, {"name": "STAMFORD CARE HOME", "coordinates": [-0.0793655, 51.6131871]}, {"name": "STELLA & HARRY FREEDMAN HOUSE", "coordinates": [-0.153572, 51.609799]}, {"name": "SUMMERDALE COURT CARE HOME", "coordinates": [0.023234856, 51.5144217]}, {"name": "SUNDRIDGE COURT", "coordinates": [0.026807, 51.4155229]}, {"name": "SURBITONIAN GARDENS", "coordinates": [-0.2966912, 51.389222]}, {"name": "SUTTON COURT CARE CENTRE", "coordinates": [-0.2110428, 51.3856952]}, {"name": "SYCAMORE LODGE", "coordinates": [-0.2723918, 51.5065716]}, {"name": "TENNYSON GRANGE", "coordinates": [-0.1780246, 51.3664089]}, {"name": "THE ALBERT SUITES", "coordinates": [-0.1644981, 51.4772565]}, {"name": "THE ARKLEY CARE HOME", "coordinates": [-0.233829102, 51.6469792]}, {"name": "THE CHISWICK NURSING CENTRE", "coordinates": [-0.242236, 51.495314]}, {"name": "THE EASTBURY NURSING HOME", "coordinates": [-0.4231218, 51.6137636]}, {"name": "THE FOUNTAINS CARE HOME", "coordinates": [0.184965324, 51.53510345]}, {"name": "THE GRANGE CARE CENTRE", "coordinates": [-0.374110086, 51.532352]}, {"name": "THE HAREFIELD CARE HOME", "coordinates": [-0.483094, 51.611072]}, {"name": "THE HIGHGATE CARE HOME", "coordinates": [-0.1394488, 51.5700079]}, {"name": "THE HORNCHURCH CARE HOME", "coordinates": [0.218322044, 51.5527573]}, {"name": "THE KENSINGTON CARE HOME", "coordinates": [-0.202276067, 51.50934455]}, {"name": "THE LAURELS CARE CENTRE", "coordinates": [-0.1308578, 51.4692589]}, {"name": "THE OAKS NURSING CENTRE", "coordinates": [0.0739374, 51.4319004]}, {"name": "THE PINES NURSING HOME", "coordinates": [-0.208911942, 51.4554051]}, {"name": "THE ROYAL STAR & GARTER HOME", "coordinates": [-0.3069941, 51.3901333]}, {"name": "THE SIDCUP CARE HOME", "coordinates": [0.1030482, 51.4272252]}, {"name": "THE WHITE HOUSE NURSING HOME", "coordinates": [-0.252477377, 51.3905403]}, {"name": "THE WILLOWS NURSING HOME", "coordinates": [-0.3765603, 51.5030076]}, {"name": "THREEN HOUSE NURSING HOME", "coordinates": [-0.312336348, 51.5110327]}, {"name": "TIME COURT RESIDENTIAL AND NURSING HOME", "coordinates": [0.045964, 51.488718]}, {"name": "TOWER BRIDGE CARE CENTRE", "coordinates": [-0.0842605, 51.4949534]}, {"name": "TRINITY COURT NURSING HOME", "coordinates": [-0.1660629, 51.4418183]}, {"name": "TUDOR HOUSE", "coordinates": [-0.089486, 51.363833]}, {"name": "UPLANDS CARE HOME", "coordinates": [-0.1266325, 51.4379321]}, {"name": "UPMINSTER NURSING HOME", "coordinates": [0.2947962, 51.5523666]}, {"name": "VI & JOHN RUBENS HOUSE", "coordinates": [0.0625554, 51.5754634]}, {"name": "VICARAGE FARM NURSING HOME", "coordinates": [-0.383682, 51.4776132]}, {"name": "VICTORIA CARE CENTRE", "coordinates": [-0.2650937, 51.4961353]}, {"name": "VILLA MARIA", "coordinates": [-0.0953311, 51.3621776]}, {"name": "WANDSWORTH COMMON CARE HOME", "coordinates": [-0.1793894, 51.4582385]}, {"name": "WARREN COURT", "coordinates": [-0.1096726, 51.339]}, {"name": "WATERSIDE", "coordinates": [-0.0740308, 51.483182]}, {"name": "WELLESLEY ROAD CARE HOME", "coordinates": [-0.1541276, 51.5511093]}, {"name": "WELLINGTON PARK CARE HOME", "coordinates": [-0.0729271, 51.64130095]}, {"name": "WESTCOMBE PARK CARE HOME", "coordinates": [0.017473, 51.478444]}, {"name": "WESTGATE HOUSE CARE HOME", "coordinates": [0.0081395, 51.5424979]}, {"name": "WESTSIDE CARE HOME", "coordinates": [-0.1330773, 51.3432902]}, {"name": "WESTWOOD HOUSE CARE HOME", "coordinates": [-0.0576849, 51.4274589]}, {"name": "WHITEFARM LODGE", "coordinates": [-0.3593836, 51.4558758]}, {"name": "WHITEFRIARS NURSING AND RESIDENTIAL HOME", "coordinates": [-0.364092, 51.514689]}, {"name": "WHITGIFT HOUSE", "coordinates": [-0.09890391, 51.3600995]}, {"name": "WILLESDEN COURT", "coordinates": [-0.252241, 51.5480693]}, {"name": "WILLETT HOUSE NURSING HOME", "coordinates": [0.0762298, 51.4177226]}, {"name": "WILLOW GRANGE CARE HOME", "coordinates": [-0.3024981, 51.3958298]}, {"name": "WILLOW LODGE", "coordinates": [-0.2087271, 51.3492993]}, {"name": "WILLOWS CARE HOME", "coordinates": [0.1747321, 51.5750013]}, {"name": "WILSMERE HOUSE CARE HOME", "coordinates": [-0.3337337, 51.609397]}, {"name": "WIMBLEDON BEAUMONT CARE COMMUNITY", "coordinates": [-0.227031, 51.416083]}, {"name": "WINDMILL LODGE", "coordinates": [-0.1269275, 51.453208]}, {"name": "WOODLAND HALL", "coordinates": [-0.33794, 51.616774]}, {"name": "WOODLANDS HOUSE", "coordinates": [-0.171178097, 51.4179304]}, {"name": "WOODLANDS NURSING HOME", "coordinates": [-0.00616532, 51.55300095]}]