[{"from": {"type": "major", "name": "St Mary's Hospital", "coordinates": [-0.17432, 51.51747]}, "to": {"name": "Hillingdon Hospital", "coordinates": [-0.46154, 51.52547]}}, {"from": {"type": "major", "name": "St Mary's Hospital", "coordinates": [-0.17432, 51.51747]}, "to": {"name": "Chelsea & Westminster Hospital", "coordinates": [-0.18134, 51.48431]}}, {"from": {"type": "major", "name": "St Mary's Hospital", "coordinates": [-0.17432, 51.51747]}, "to": {"name": "Ealing Hospital", "coordinates": [-0.34595, 51.5086]}}, {"from": {"type": "major", "name": "St Mary's Hospital", "coordinates": [-0.17432, 51.51747]}, "to": {"name": "Northwick Park Hospital", "coordinates": [-0.32153, 51.57518]}}, {"from": {"type": "major", "name": "St Mary's Hospital", "coordinates": [-0.17432, 51.51747]}, "to": {"name": "Watford General Hospital", "coordinates": [-0.40424, 51.64967]}}, {"from": {"type": "major", "name": "St Mary's Hospital", "coordinates": [-0.17432, 51.51747]}, "to": {"name": "West Middlesex University Hospital", "coordinates": [-0.3257, 51.4736]}}]